"","lon","lat","address","zip","city","state","x2020_01","quartile","state_name","region","division"
"1",-81.8145715,26.6049005,"challenger blvd, fort myers, fl 33966, usa","33966","Fort Myers","FL",230071,"q3","Florida","South","South Atlantic"
"2",-82.1944946,33.4792417,"4109 gateway blvd, grovetown, ga 30813, usa","30813","Grovetown","GA",194257,"q3","Georgia","South","South Atlantic"
"3",-89.1222209,41.3587063,"1307 38th st, peru, il 61354, usa","61354","Peru","IL",109722,"q2","Illinois","Midwest","East North Central"
"4",-118.3425792,34.1690465,"3226 w magnolia blvd, burbank, ca 91505, usa","91505","Burbank","CA",816218,"q4","California","West","Pacific"
"5",-97.715703,30.350732,"1100 w anderson ln, austin, tx 78757, usa","78757","Austin","TX",477693,"q4","Texas","South","West South Central"
"6",-80.3861097,25.6893786,"8268 mills dr, miami, fl 33183, usa","33183","Kendale Lakes","FL",257062,"q3","Florida","South","South Atlantic"
"7",-84.2699313,33.8114213,"2201 lawrenceville hwy #100decatur, decatur, ga 30033, usa","30033","Decatur","GA",355570,"q4","Georgia","South","South Atlantic"
"8",-80.9269876,35.2317442,"5301 wilkinson blvd, charlotte, nc 28208, usa","28208","Charlotte","NC",162022,"q2","North Carolina","South","South Atlantic"
"9",-79.7923249,36.0600579,"1235 s eugene st, greensboro, nc 27406, usa","27406","Greensboro","NC",135032,"q2","North Carolina","South","South Atlantic"
"10",-87.5755002,38.0189843,"4480 n first ave, evansville, in 47710, usa","47710","Evansville","IN",101957,"q1","Indiana","Midwest","East North Central"
"11",-112.1482793,33.8776137,"43240 n black canyon hwy, phoenix, az 85087, usa","85087","New River","AZ",395684,"q4","Arizona","West","Mountain"
"12",-76.9389192,40.2149851,"3825 hartzdale dr, camp hill, pa 17011, usa","17011","Lower Allen Township","PA",208949,"q3","Pennsylvania","Northeast","Middle Atlantic"
"13",-83.6820434,42.2340772,"3782 carpenter rd, ypsilanti, mi 48197, usa","48197","Ypsilanti","MI",235532,"q3","Michigan","Midwest","East North Central"
"14",-111.7931223,33.2465449,"2825 e ocotillo rd, chandler, az 85249, usa","85249","Chandler","AZ",427233,"q4","Arizona","West","Mountain"
"15",-81.6133381,42.9487673,"351 caradoc st s, strathroy, on n7g 2p3, canada","canada",NA,NA,NA,"q4",NA,NA,NA
"16",-87.8156331,42.1040874,"2740 old willow rd, northbrook, il 60062, usa","60062","Northbrook","IL",522959,"q4","Illinois","Midwest","East North Central"
"17",-92.085407,32.521734,"3158 louisville ave, monroe, la 71201, usa","71201","Monroe","LA",186033,"q3","Louisiana","South","West South Central"
"18",-90.5789609,38.7476013,"3551 harvester rd 2 store, st peters, mo 63303, usa","63303","Saint Charles","MO",241210,"q3","Missouri","Midwest","West North Central"
"19",-98.7182213,46.879623,"2629 8th ave sw, jamestown, nd 58401, usa","58401","Jamestown","ND",194423,"q3","North Dakota","Midwest","West North Central"
"20",-84.7567166,43.5760681,"4529 e blue grass rd, mt pleasant, mi 48858, usa","48858","Mount Pleasant","MI",146933,"q2","Michigan","Midwest","East North Central"
"21",-81.4898822,30.3170493,"11900 atlantic blvd, jacksonville, fl 32225, usa","32225","Jacksonville","FL",249444,"q3","Florida","South","South Atlantic"
"22",-81.4610276,30.2848241,"13500 beach blvd, jacksonville, fl 32224, usa","32224","Jacksonville","FL",315969,"q4","Florida","South","South Atlantic"
"23",-115.2788201,36.2839309,"6765 n durango dr, las vegas, nv 89149, usa","89149","Las Vegas","NV",327731,"q4","Nevada","West","Mountain"
"24",-80.8532605,35.1995934,"2226 park rd, charlotte, nc 28203, usa","28203","Charlotte","NC",480294,"q4","North Carolina","South","South Atlantic"
"25",-80.0766287,26.6249638,"701 boutwell rd, lake worth, fl 33461, usa","33461","Palm Springs","FL",193575,"q3","Florida","South","South Atlantic"
"26",-84.2125283,39.0247115,"87 e main st, amelia, oh 45102, usa","45102","Amelia","OH",187121,"q3","Ohio","Midwest","East North Central"
"27",-84.3770591,39.2282036,"9410 kenwood rd, blue ash, oh 45242, usa","45242","Blue Ash","OH",354594,"q4","Ohio","Midwest","East North Central"
"28",-84.2468489,39.1922561,"985 oh-28 #28milford, milford, oh 45150, usa","45150","Milford","OH",207331,"q3","Ohio","Midwest","East North Central"
"29",-84.3395384,39.3401318,"1063 reading rd, mason, oh 45040, usa","45040","Mason","OH",301132,"q4","Ohio","Midwest","East North Central"
"30",-90.5064027,44.0101296,"1516 n superior ave, tomah, wi 54660, usa","54660","Tomah","WI",166582,"q3","Wisconsin","Midwest","East North Central"
"31",-80.2367058,25.750078,"2500 sw 22nd st, miami, fl 33145, usa","33145","Miami","FL",429614,"q4","Florida","South","South Atlantic"
"32",-84.5972184,39.1477796,"2990 harrison ave, cincinnati, oh 45211, usa","45211","Cincinnati","OH",116150,"q2","Ohio","Midwest","East North Central"
"33",-75.015533,39.71315,"1912 n black horse pike, williamstown, nj 08094, usa","08094",NA,NA,NA,"q4",NA,NA,NA
"34",-77.4727664,38.4761299,"54 n. stafford complex, center st, stafford, va 22556, usa","22556","Stafford","VA",358414,"q4","Virginia","South","South Atlantic"
"35",-88.5751781,43.996702,"1600 w 20th ave, oshkosh, wi 54902, usa","54902","Oshkosh","WI",126406,"q2","Wisconsin","Midwest","East North Central"
"36",-78.8136475,41.1468656,"131 preston way, falls creek, pa 15840, usa","15840","Falls Creek","PA",85409,"q1","Pennsylvania","Northeast","Middle Atlantic"
"37",-80.2507552,27.1977267,"101 se ocean blvd ste 101, stuart, fl 34994, usa","34994","Stuart","FL",167301,"q3","Florida","South","South Atlantic"
"38",-85.0852002,31.8803417,"1430 ga-50 #101tifton, georgetown, ga 39854, usa","39854","Georgetown","GA",77305,"q1","Georgia","South","South Atlantic"
"39",-82.5285787,27.8672255,"w prescott st, tampa, fl 33616, usa","33616","Tampa","FL",251239,"q3","Florida","South","South Atlantic"
"40",-99.0886453,40.7152643,"4009 6th ave, kearney, ne 68845, usa","68845","Kearney","NE",244362,"q3","Nebraska","Midwest","West North Central"
"41",-122.7062552,38.4137366,"651 yolanda ave, santa rosa, ca 95404, usa","95404","Santa Rosa","CA",647775,"q4","California","West","Pacific"
"42",-83.9219448,35.9921301,"2041 n broadway, knoxville, tn 37917, usa","37917","Knoxville","TN",133877,"q2","Tennessee","South","East South Central"
"43",-121.8238331,39.7620273,"1354 east ave suite d, chico, ca 95926, usa","95926","Chico","CA",370189,"q4","California","West","Pacific"
"44",-90.5171064,38.7838926,"1 westbury dr bldg b, suite 220, st charles, mo 63301, usa","63301","Saint Charles","MO",205518,"q3","Missouri","Midwest","West North Central"
"45",NA,NA,NA,NA,NA,NA,NA,"q4",NA,NA,NA
"46",-85.8154231,41.5667914,"1401 college ave, goshen, in 46526, usa","46526","Goshen","IN",166473,"q3","Indiana","Midwest","East North Central"
"47",-87.9091922,43.0880542,"3900 n palmer st, milwaukee, wi 53212, usa","53212","Milwaukee","WI",129708,"q2","Wisconsin","Midwest","East North Central"
"48",-96.8048321,32.9103574,"5941 forest ln, dallas, tx 75230, usa","75230","Dallas","TX",606784,"q4","Texas","South","West South Central"
"49",-82.2598284,29.0791092,"8449 sw state rd 200, ocala, fl 34481, usa","34481","Ocala","FL",154295,"q2","Florida","South","South Atlantic"
"50",-116.3635446,43.6194644,"e fairview ave, meridian, id 83642, usa","83642","Meridian","ID",346973,"q4","Idaho","West","Mountain"
"51",-121.3198491,37.9983748,"stockton, ca 95207, usa","95207","Stockton","CA",297625,"q4","California","West","Pacific"
"52",-112.0663229,33.6065936,"13226 n 7th st, phoenix, az 85022, usa","85022","Phoenix","AZ",296880,"q4","Arizona","West","Mountain"
"53",-96.6484307,32.8641975,"1661 e northwest hwy, garland, tx 75041, usa","75041","Garland","TX",176999,"q3","Texas","South","West South Central"
"54",-81.9960076,34.945705,"895 spartan blvd, spartanburg, sc 29301, usa","29301","Spartanburg","SC",146871,"q2","South Carolina","South","South Atlantic"
"55",-77.3697224,37.1837383,"65 crater cir, petersburg, va 23805, usa","23805","Petersburg","VA",141247,"q2","Virginia","South","South Atlantic"
"56",-82.0673715,34.8865711,"sc-296 & sc-290, south carolina 29334, usa","29334","Duncan","SC",188754,"q3","South Carolina","South","South Atlantic"
"57",-82.6517009,34.503219,"sc-81, anderson, sc, usa","sc",NA,NA,NA,"q4",NA,NA,NA
"58",-84.3261564,33.4464788,"1985 mcdonough rd, hampton, ga 30228, usa","30228","Hampton","GA",190249,"q3","Georgia","South","South Atlantic"
"59",-84.0168797,33.5509225,"4489 hwy 20 s, covington, ga 30016, usa","30016","Covington","GA",168540,"q3","Georgia","South","South Atlantic"
"60",-91.7508015,37.9533589,"1304 forum dr, rolla, mo 65401, usa","65401","Rolla","MO",147163,"q2","Missouri","Midwest","West North Central"
"61",-81.5072641,41.02744,"570 e waterloo rd, akron, oh 44319, usa","44319","Portage Lakes","OH",158107,"q2","Ohio","Midwest","East North Central"
"62",-84.4466394,33.4729909,"1030 glynn st n, fayetteville, ga 30214, usa","30214","Fayetteville","GA",246003,"q3","Georgia","South","South Atlantic"
"63",-81.5325594,35.2777268,"445 earl rd, shelby, nc 28150, usa","28150","Shelby","NC",104243,"q1","North Carolina","South","South Atlantic"
"64",-84.5996639,33.8526353,"1717 east-west connector, austell, ga 30106, usa","30106","Austell","GA",182655,"q3","Georgia","South","South Atlantic"
"65",-85.2350481,34.2730141,"2338 shorter ave nw, rome, ga 30165, usa","30165","Rome","GA",133393,"q2","Georgia","South","South Atlantic"
"66",-84.5055047,33.6561318,"3625 n commerce dr, east point, ga 30344, usa","30344","East Point","GA",174603,"q3","Georgia","South","South Atlantic"
"67",-84.3182099,34.0376586,"10580 duke dr, alpharetta, ga 30009, usa","30009","Alpharetta","GA",394978,"q4","Georgia","South","South Atlantic"
"68",-84.2918658,33.2454649,"1520 ga-16, griffin, ga 30224, usa","30224","Griffin","GA",152973,"q2","Georgia","South","South Atlantic"
"69",-111.6319956,33.2530367,"21437 s ellsworth rd, queen creek, az 85142, usa","85142","Queen Creek","AZ",350265,"q4","Arizona","West","Mountain"
"70",-95.9037036,36.0621908,"6933 s sheridan rd, tulsa, ok 74133, usa","74133","Tulsa","OK",193461,"q3","Oklahoma","South","West South Central"
"71",-110.9956618,32.3653716,"n la cañada dr, oro valley, az 85737, usa","85737","Oro Valley","AZ",324502,"q4","Arizona","West","Mountain"
"72",-92.2339725,38.5797612,"s ten mile dr, jefferson city, mo 65109, usa","65109","Jefferson City","MO",161349,"q2","Missouri","Midwest","West North Central"
"73",-85.498565,44.7726665,"3922 m-72, williamsburg, mi 49690, usa","49690","Williamsburg","MI",302697,"q4","Michigan","Midwest","East North Central"
"74",-80.2229578,26.6524237,"1925 birkdale dr, west palm beach, fl 33414, usa","33414","Wellington","FL",385372,"q4","Florida","South","South Atlantic"
"75",-74.0029218,40.751033,"520 w 28th st, new york, ny 10001, usa","10001","New York","NY",1167208,"q4","New York","Northeast","Middle Atlantic"
"76",-96.105095,36.1387868,"202 jefferson st, sand springs, ok 74063, usa","74063","Sand Springs","OK",140101,"q2","Oklahoma","South","West South Central"
"77",-92.0669889,30.2007407,"3840 w congress st, lafayette, la 70506, usa","70506","Lafayette","LA",157474,"q2","Louisiana","South","West South Central"
"78",-118.2484594,34.1152484,"3150 n san fernando rd, los angeles, ca 90065, usa","90065","Los Angeles","CA",829589,"q4","California","West","Pacific"
"79",-118.6018871,34.1994957,"7107 owensmouth ave, canoga park, ca 91303, usa","91303","Los Angeles","CA",549441,"q4","California","West","Pacific"
"80",-84.0002851,35.9921051,"5412 pleasant ridge rd, knoxville, tn 37912, usa","37912","Knoxville","TN",151086,"q2","Tennessee","South","East South Central"
"81",-77.4078341,43.064721,"7450 pittsford palmyra rd, fairport, ny 14450, usa","14450","Town Of Perinton","NY",226422,"q3","New York","Northeast","Middle Atlantic"
"82",-80.1970523,26.6911298,"9920 belvedere rd, royal palm beach, fl 33411, usa","33411","Royal Palm Beach","FL",307808,"q4","Florida","South","South Atlantic"
"83",-78.8714183,35.7451834,"1150 w williams st, apex, nc 27502, usa","27502","Apex","NC",353539,"q4","North Carolina","South","South Atlantic"
"84",-84.1785432,40.56588,"1240 bellefontaine st, wapakoneta, oh 45895, usa","45895","Wapakoneta","OH",141560,"q2","Ohio","Midwest","East North Central"
"85",-79.846568,43.2127686,"1050 upper gage ave, hamilton, on l8v 5b7, canada","canada",NA,NA,NA,"q4",NA,NA,NA
"86",-82.6370084,36.550812,"4528 w stone dr, kingsport, tn 37660, usa","37660","Kingsport","TN",123519,"q2","Tennessee","South","East South Central"
"87",-85.7047275,41.1918006,"521 s 1st st, pierceton, in 46562, usa","46562","Pierceton","IN",156329,"q2","Indiana","Midwest","East North Central"
"88",-81.7566537,26.1191967,"3855 tamiami trail e, naples, fl 34112, usa","34112","Naples","FL",210164,"q3","Florida","South","South Atlantic"
"89",-83.7256309,41.5001624,"741 michigan ave, waterville, oh 43566, usa","43566","Waterville","OH",218448,"q3","Ohio","Midwest","East North Central"
"90",-86.0594134,39.9083034,"6302 e 82nd st #100indianapolis, indianapolis, in 46250, usa","46250","Indianapolis","IN",228558,"q3","Indiana","Midwest","East North Central"
"91",-77.7217797,39.713464,"14515 pennsylvania ave, hagerstown, md 21742, usa","21742","Hagerstown","MD",229997,"q3","Maryland","South","South Atlantic"
"92",-112.2712807,33.4192475,"2933 s 99th ave, tolleson, az 85353, usa","85353","Phoenix","AZ",240422,"q3","Arizona","West","Mountain"
"93",NA,NA,NA,NA,NA,NA,NA,"q4",NA,NA,NA
"94",-118.3743883,34.0757805,"8430 beverly blvd, los angeles, ca 90048, usa","90048","Los Angeles","CA",1579042,"q4","California","West","Pacific"
"95",-85.6555643,44.6761993,"853 us-31, traverse city, mi 49685, usa","49685","Traverse City","MI",267802,"q4","Michigan","Midwest","East North Central"
"96",-83.9810252,35.7629199,"145 n calderwood st, alcoa, tn 37701, usa","37701","Alcoa","TN",157471,"q2","Tennessee","South","East South Central"
"97",-121.6529802,36.7027723,"1325 n main st, salinas, ca 93906, usa","93906","Salinas","CA",469243,"q4","California","West","Pacific"
"98",-80.5910133,35.4686656,"2303 coldwater ridge dr, kannapolis, nc 28083, usa","28083","Kannapolis","NC",150940,"q2","North Carolina","South","South Atlantic"
"99",-80.3174589,36.1192148,"3510 polo rd nw, winston-salem, nc 27106, usa","27106","Winston-Salem","NC",197712,"q3","North Carolina","South","South Atlantic"
"100",-96.4563601,41.4498035,"3175 elk ln, fremont, ne 68025, usa","68025","Fremont","NE",156218,"q2","Nebraska","Midwest","West North Central"
"101",-85.6393827,38.2515971,"shelbyville rd, brwnsboro vlg, ky 40207, usa","40207","Louisville","KY",306918,"q4","Kentucky","South","East South Central"
"102",-122.5244559,37.97142,"809 lincoln ave, san rafael, ca 94901, usa","94901","San Rafael","CA",1184857,"q4","California","West","Pacific"
"103",-92.0934136,30.2341782,"911 alfred st, lafayette, la 70506, usa","70506","Lafayette","LA",157474,"q2","Louisiana","South","West South Central"
"104",-84.9559059,32.5386886,"6499 veterans pkwy, columbus, ga 31909, usa","31909","Columbus","GA",156927,"q2","Georgia","South","South Atlantic"
"105",-81.7228436,38.8193428,"122 mcgraw st, ripley, wv 25271, usa","25271","Ripley","WV",121083,"q2","West Virginia","South","South Atlantic"
"106",-82.2187908,41.2670034,"14910 oh-58, oberlin, oh 44074, usa","44074","Oberlin","OH",164901,"q3","Ohio","Midwest","East North Central"
"107",-122.0354763,38.2631042,"1819 n texas st m, fairfield, ca 94533, usa","94533","Fairfield","CA",402836,"q4","California","West","Pacific"
"108",-109.2336252,41.5787698,"1254 dewar dr, rock springs, wy 82901, usa","82901","Rock Springs","WY",237877,"q3","Wyoming","West","Mountain"
"109",-84.9513528,32.5427378,"6770 veterans pkwy, columbus, ga 31909, usa","31909","Columbus","GA",156927,"q2","Georgia","South","South Atlantic"
"110",-86.1224584,41.7512802,"13000 in-23, granger, in 46530, usa","46530","Granger","IN",260923,"q3","Indiana","Midwest","East North Central"
"111",-84.4086989,33.7949739,"1460 northside dr nw, atlanta, ga 30318, usa","30318","Atlanta","GA",251281,"q3","Georgia","South","South Atlantic"
"112",-86.4629232,36.383489,"670 nashville pike, gallatin, tn 37066, usa","37066","Gallatin","TN",272151,"q4","Tennessee","South","East South Central"
"113",-77.6364299,43.200781,"greece, ny 14615, usa","14615","Rochester","NY",102339,"q1","New York","Northeast","Middle Atlantic"
"114",-88.4263028,44.2354692,"1800 appleton rd, menasha, wi 54952, usa","54952","Menasha","WI",153172,"q2","Wisconsin","Midwest","East North Central"
"115",-79.0589046,38.0832807,"749 christians creek rd, staunton, va 24401, usa","24401","Staunton","VA",184422,"q3","Virginia","South","South Atlantic"
"116",-88.0676301,44.5263954,"1660 w mason st, green bay, wi 54303, usa","54303","Green Bay","WI",129953,"q2","Wisconsin","Midwest","East North Central"
"117",-90.1557162,44.6919277,"2220 n central ave, marshfield, wi 54449, usa","54449","Marshfield","WI",163205,"q2","Wisconsin","Midwest","East North Central"
"118",-89.1340008,45.1621469,"405 wi-64, antigo, wi 54409, usa","54409","Antigo","WI",86896,"q1","Wisconsin","Midwest","East North Central"
"119",-84.7238831,33.7532486,"5793 fairburn rd #400douglasville, douglasville, ga 30134, usa","30134","Douglasville","GA",172916,"q3","Georgia","South","South Atlantic"
"120",-80.229007,26.349462,"11427 w palmetto park rd, boca raton, fl 33428, usa","33428","Boca Raton","FL",303092,"q4","Florida","South","South Atlantic"
"121",-122.531116,47.2335641,"2815 rochester rd w, tacoma, wa 98466, usa","98466","University Place","WA",428874,"q4","Washington","West","Pacific"
"122",-86.1579274,41.7313439,"52550 fir rd, granger, in 46530, usa","46530","Granger","IN",260923,"q3","Indiana","Midwest","East North Central"
"123",-69.0258104,44.4243204,"13 goodwill dr, belfast, me 04915, usa","04915",NA,NA,NA,"q4",NA,NA,NA
"124",-89.8158907,44.3710144,"2561 8th st s, wisconsin rapids, wi 54494, usa","54494","Wisconsin Rapids","WI",129406,"q2","Wisconsin","Midwest","East North Central"
"125",-86.6240631,36.303627,"327 w main st, hendersonville, tn 37075, usa","37075","Hendersonville","TN",305937,"q4","Tennessee","South","East South Central"
"126",-84.0135614,35.979871,"5705 western ave, knoxville, tn 37921, usa","37921","Knoxville","TN",154013,"q2","Tennessee","South","East South Central"
"127",-79.3951236,36.7898941,"13701 us-29, chatham, va 24531, usa","24531","Chatham","VA",123720,"q2","Virginia","South","South Atlantic"
"128",-90.784503,38.766605,"913 robert raymond dr, lake st louis, mo 63367, usa","63367","Lake Saint Louis","MO",282293,"q4","Missouri","Midwest","West North Central"
"129",-79.9478947,37.26995,"352 church ave sw, roanoke, va 24016, usa","24016","Roanoke","VA",77097,"q1","Virginia","South","South Atlantic"
"130",-90.5372115,38.6167862,"14808 clayton rd, chesterfield, mo 63017, usa","63017","Chesterfield","MO",383639,"q4","Missouri","Midwest","West North Central"
"131",-122.4620016,48.7742415,"1115 e sunset dr, bellingham, wa 98226, usa","98226","Bellingham","WA",448251,"q4","Washington","West","Pacific"
"132",-83.8498744,33.6029572,"3173 hwy 278 ne, covington, ga 30014, usa","30014","Covington","GA",172788,"q3","Georgia","South","South Atlantic"
"133",-104.91914,39.777242,"4355 kearney st, denver, co 80216, usa","80216","Denver","CO",310950,"q4","Colorado","West","Mountain"
"134",-122.5010665,47.2428807,"3110 s mullen st, tacoma, wa 98405, usa","98405","Tacoma","WA",334740,"q4","Washington","West","Pacific"
"135",-84.6192544,35.4512349,"1500 decatur pike, athens, tn 37303, usa","37303","Athens","TN",142137,"q2","Tennessee","South","East South Central"
"136",-90.1401747,32.4082891,"104 e state st, ridgeland, ms 39157, usa","39157","Ridgeland","MS",198017,"q3","Mississippi","South","East South Central"
"137",-78.7990606,39.6307822,"12000 upper potomac industrial park st, cumberland, md 21502, usa","21502","Cumberland","MD",95029,"q1","Maryland","South","South Atlantic"
"138",-121.7139516,38.5528138,"2939 spafford st, davis, ca 95618, usa","95618","Davis","CA",675271,"q4","California","West","Pacific"
"139",-122.7854421,45.4194102,"13920 sw pacific hwy, tigard, or 97223, usa","97223","Tigard","OR",448421,"q4","Oregon","West","Pacific"
"140",-93.8074471,32.3981132,"9361 mansfield rd, shreveport, la 71118, usa","71118","Shreveport","LA",131530,"q2","Louisiana","South","West South Central"
"141",-79.2102278,37.4095315,"3213 forest brook rd, lynchburg, va 24501, usa","24501","Lynchburg","VA",99047,"q1","Virginia","South","South Atlantic"
"142",-78.7499341,39.6312117,"1050 w industrial blvd #10cumberland, cumberland, md 21502, usa","21502","Cumberland","MD",95029,"q1","Maryland","South","South Atlantic"
"143",-90.4271003,36.7796722,"2233 n westwood blvd, poplar bluff, mo 63901, usa","63901","Poplar Bluff","MO",115187,"q2","Missouri","Midwest","West North Central"
"144",-95.0630932,29.8817606,"14530 crosby lynchburg rd, crosby, tx 77532, usa","77532","Crosby","TX",196143,"q3","Texas","South","West South Central"
"145",-156.0213306,19.6892397,"73-4786 kanalani st, kailua-kona, hi 96740, usa","96740","Kailua Kona","HI",555218,"q4","Hawaii","West","Pacific"
"146",-93.2884865,30.8635785,"1025 n pine st, deridder, la 70634, usa","70634","Deridder","LA",162537,"q2","Louisiana","South","West South Central"
"147",-78.7932628,35.7048137,"1011 langston pond dr store 1011, cary, nc 27518, usa","27518","Cary","NC",442265,"q4","North Carolina","South","South Atlantic"
"148",-91.676107,44.0491914,"1450 gilmore ave, winona, mn 55987, usa","55987","Winona","MN",179277,"q3","Minnesota","Midwest","West North Central"
"149",-81.8120544,41.1359317,"3500 medina rd, medina, oh 44256, usa","44256","Medina","OH",249166,"q3","Ohio","Midwest","East North Central"
"150",-70.2425641,43.5862388,"21 dennison dr, cape elizabeth, me 04107, usa","04107",NA,NA,NA,"q4",NA,NA,NA
"151",-91.6328917,41.9766398,"2405 mt vernon rd se, cedar rapids, ia 52403, usa","52403","Cedar Rapids","IA",146153,"q2","Iowa","Midwest","West North Central"
"152",-70.527124,43.3760303,"36 sea rd, kennebunk, me 04043, usa","04043",NA,NA,NA,"q4",NA,NA,NA
"153",-89.4888364,43.1046647,"6280 century ave, middleton, wi 53562, usa","53562","Middleton","WI",431925,"q4","Wisconsin","Midwest","East North Central"
"154",-70.5259004,43.4490789,"46 bergeron dr, arundel, me 04046, usa","04046",NA,NA,NA,"q4",NA,NA,NA
"155",-98.4066576,34.5946998,"1203 sw lee blvd, lawton, ok 73501, usa","73501","Lawton","OK",66899,"q1","Oklahoma","South","West South Central"
"156",-122.6735694,38.4747366,"560 montecito center, santa rosa, ca 95409, usa","95409","Santa Rosa","CA",674445,"q4","California","West","Pacific"
"157",-74.9325683,39.9790904,"moorestown, nj 08057, usa","08057",NA,NA,NA,"q4",NA,NA,NA
"158",-106.268474,31.7585688,"1861 joe battle blvd ste 8, el paso, tx 79936, usa","79936","El Paso","TX",134103,"q2","Texas","South","West South Central"
"159",-80.4807961,35.6840859,"123 mahaley ave, salisbury, nc 28144, usa","28144","Salisbury","NC",107594,"q2","North Carolina","South","South Atlantic"
"160",-86.1571324,39.6512274,"8011 s meridian st, indianapolis, in 46217, usa","46217","Indianapolis","IN",168686,"q3","Indiana","Midwest","East North Central"
"161",-79.7886049,40.4266887,"monroeville blvd, monroeville, pa 15146, usa","15146","Monroeville","PA",156756,"q2","Pennsylvania","Northeast","Middle Atlantic"
"162",-96.9936579,32.8465999,"2935 n belt line rd, irving, tx 75062, usa","75062","Irving","TX",216252,"q3","Texas","South","West South Central"
"163",-77.044827,37.445072,"3620 n courthouse rd, providence forge, va 23140, usa","23140","Providence Forge","VA",316708,"q4","Virginia","South","South Atlantic"
"164",-77.5656518,37.6777652,"10600 fords country ln, glen allen, va 23059, usa","23059","Glen Allen","VA",428455,"q4","Virginia","South","South Atlantic"
"165",-80.3375799,36.0672461,"4550 kester mill rd, winston-salem, nc 27103, usa","27103","Winston-Salem","NC",169202,"q3","North Carolina","South","South Atlantic"
"166",-122.1163185,37.6646638,"20806 hesperian blvd, hayward, ca 94541, usa","94541","Hayward","CA",658695,"q4","California","West","Pacific"
"167",-81.7233994,30.3193396,"4527 lenox ave, jacksonville, fl 32205, usa","32205","Jacksonville","FL",178540,"q3","Florida","South","South Atlantic"
"168",-84.2115224,37.9908657,"bypass rd, winchester, ky 40391, usa","40391","Winchester","KY",147188,"q2","Kentucky","South","East South Central"
"169",-122.425842,37.6419095,"225 kenwood way, south san francisco, ca 94080, usa","94080","South San Francisco","CA",1066646,"q4","California","West","Pacific"
"170",-117.4097084,47.7435177,"9414 n division st, spokane, wa 99218, usa","99218","Spokane","WA",314282,"q4","Washington","West","Pacific"
"171",-105.0964783,39.9888819,"555 w south boulder rd, lafayette, co 80026, usa","80026","Lafayette","CO",516296,"q4","Colorado","West","Mountain"
"172",-119.7280238,39.179763,"3520 us-50, carson city, nv 89701, usa","89701","Carson City","NV",325472,"q4","Nevada","West","Mountain"
"173",-87.5001629,38.6894143,"2655 n 6th st, vincennes, in 47591, usa","47591","Vincennes","IN",101307,"q1","Indiana","Midwest","East North Central"
"174",NA,NA,NA,NA,NA,NA,NA,"q4",NA,NA,NA
"175",-97.9433251,35.0299226,"828 w grand ave, chickasha, ok 73018, usa","73018","Chickasha","OK",81286,"q1","Oklahoma","South","West South Central"
"176",-82.5564559,28.0684157,"tampa, fl 33625, usa","33625","Citrus Park","FL",259515,"q3","Florida","South","South Atlantic"
"177",-119.7147451,36.8105254,"239 w shaw ave, clovis, ca 93612, usa","93612","Clovis","CA",243649,"q3","California","West","Pacific"
"178",-117.2727052,34.1055914,"8120 palm ln, san bernardino, ca 92410, usa","92410","San Bernardino","CA",271255,"q4","California","West","Pacific"
"179",-86.2169564,41.6582914,"1915 lincoln way e, south bend, in 46613, usa","46613","South Bend","IN",48547,"q1","Indiana","Midwest","East North Central"
"180",-84.180762,33.431909,"101 willow ln, mcdonough, ga 30253, usa","30253","McDonough","GA",200823,"q3","Georgia","South","South Atlantic"
"181",-121.3817679,38.6114774,"2502 watt ave, sacramento, ca 95821, usa","95821","Arden-Arcade","CA",373221,"q4","California","West","Pacific"
"182",-97.1362101,37.6806404,"415 s andover rd store 415 s, andover, ks 67002, usa","67002","Andover","KS",225752,"q3","Kansas","Midwest","West North Central"
"183",-82.4536115,34.8268335,"greenville, sc 29611, usa","29611","Greenville","SC",122175,"q2","South Carolina","South","South Atlantic"
"184",-81.4874206,27.4904285,"901 us hwy 27 n, sebring, fl 33870, usa","33870","Sebring","FL",118364,"q2","Florida","South","South Atlantic"
"185",-112.0985274,33.6558418,"18631 n 19th ave, phoenix, az 85027, usa","85027","Phoenix","AZ",243547,"q3","Arizona","West","Mountain"
"186",-121.7580585,36.9116923,"470 main st, watsonville, ca 95076, usa","95076","Watsonville","CA",609584,"q4","California","West","Pacific"
"187",-83.9075448,35.9358876,"4201 chapman hwy, knoxville, tn 37920, usa","37920","Knoxville","TN",159972,"q2","Tennessee","South","East South Central"
"188",-80.3519787,25.8829023,"12060 hialeah gardens blvd, hialeah gardens, fl 33018, usa","33018","Hialeah","FL",326893,"q4","Florida","South","South Atlantic"
"189",-121.8484774,36.6094723,"729 broadway ave, seaside, ca 93955, usa","93955","Seaside","CA",564461,"q4","California","West","Pacific"
"190",-78.3976425,37.2851451,"1425 s main st, farmville, va 23901, usa","23901","Farmville","VA",178956,"q3","Virginia","South","South Atlantic"
"191",-91.0251068,30.4259968,"baton rouge, la 70816, usa","70816","Baton Rouge","LA",177426,"q3","Louisiana","South","West South Central"
"192",-81.9044951,26.5585467,"5995 south pointe blvd #101, fort myers, fl 33919, usa","33919","Fort Myers","FL",193789,"q3","Florida","South","South Atlantic"
"193",-93.3479677,37.207595,"425 s western ave, springfield, mo 65802, usa","65802","Springfield","MO",115091,"q2","Missouri","Midwest","West North Central"
"194",-104.8599645,38.8459979,"2320 w colorado ave, colorado springs, co 80904, usa","80904","Colorado Springs","CO",318874,"q4","Colorado","West","Mountain"
"195",-88.5042075,34.9140595,"1651 virginia ln, corinth, ms 38834, usa","38834","Corinth","MS",100475,"q1","Mississippi","South","East South Central"
"196",-79.1678381,37.4034009,"2325 memorial ave, lynchburg, va 24501, usa","24501","Lynchburg","VA",99047,"q1","Virginia","South","South Atlantic"
"197",-74.7953426,39.9825206,"1589 nj-38, lumberton, nj 08048, usa","08048",NA,NA,NA,"q4",NA,NA,NA
"198",-76.0749969,36.8206185,"600 s lynnhaven rd, virginia beach, va 23452, usa","23452","Virginia Beach","VA",250571,"q3","Virginia","South","South Atlantic"
"199",-122.6310114,47.6050055,"4209 wheaton way, bremerton, wa 98310, usa","98310","Bremerton","WA",324535,"q4","Washington","West","Pacific"
"200",-84.2547133,33.8443683,"3983 lavista rd #136tucker, tucker, ga 30084, usa","30084","Tucker","GA",254774,"q3","Georgia","South","South Atlantic"
"201",-81.0025129,41.7991217,"26644 n ridge rd, madison, oh 44057, usa","44057","Madison","OH",148308,"q2","Ohio","Midwest","East North Central"
"202",-79.8305497,36.6933756,"8500 a l philpott hwy, martinsville, va 24112, usa","24112","Martinsville","VA",76436,"q1","Virginia","South","South Atlantic"
"203",-97.7899663,30.2713151,"2814 bee caves rd, austin, tx 78746, usa","78746","Austin","TX",1147837,"q4","Texas","South","West South Central"
"204",-95.6981911,29.547328,"1025 crabb river rd, richmond, tx 77469, usa","77469","Richmond","TX",237473,"q3","Texas","South","West South Central"
"205",-80.029703,37.298542,"1489 e main st, salem, va 24153, usa","24153","Salem","VA",188800,"q3","Virginia","South","South Atlantic"
"206",-95.5791774,37.0423805,"1863 5300 rd, coffeyville, ks 67337, usa","67337","Coffeyville","KS",49274,"q1","Kansas","Midwest","West North Central"
"207",-73.3444346,42.2114289,"396 stockbridge rd, great barrington, ma 01230, usa","01230",NA,NA,NA,"q4",NA,NA,NA
"208",-122.5054268,45.6308408,"1200 ne 162nd pl, vancouver, wa 98684, usa","98684","Vancouver","WA",351922,"q4","Washington","West","Pacific"
"209",-77.7265194,39.7993962,"524 n antrim way, greencastle, pa 17225, usa","17225","Greencastle","PA",199940,"q3","Pennsylvania","Northeast","Middle Atlantic"
"210",-93.0189073,45.0183177,"2580 white bear ave, maplewood, mn 55109, usa","55109","Maplewood","MN",250708,"q3","Minnesota","Midwest","West North Central"
"211",-80.5536975,41.9441965,"228 harbor st, conneaut, oh 44030, usa","44030","Conneaut","OH",86720,"q1","Ohio","Midwest","East North Central"
"212",-82.5072324,27.3533531,"1781 dr martin luther king jr way, sarasota, fl 34234, usa","34234","Sarasota","FL",176212,"q3","Florida","South","South Atlantic"
"213",-78.7959575,35.6650519,"101 matthews dr, holly springs, nc 27540, usa","27540","Holly Springs","NC",337588,"q4","North Carolina","South","South Atlantic"
"214",-123.3358757,42.4206166,"1642 williams hwy, grants pass, or 97527, usa","97527","Grants Pass","OR",309274,"q4","Oregon","West","Pacific"
"215",-93.454129,45.1007964,"13605 80th cir n, maple grove, mn 55311, usa","55311","Maple Grove","MN",361921,"q4","Minnesota","Midwest","West North Central"
"216",-122.2953141,47.663215,"4637 union bay pl ne, seattle, wa 98105, usa","98105","Seattle","WA",1009740,"q4","Washington","West","Pacific"
"217",-81.9070659,28.8819486,"2160 us-441, lady lake, fl 32159, usa","32159","The Villages","FL",234175,"q3","Florida","South","South Atlantic"
"218",-122.5805391,45.4508371,"9999 se 82nd ave, portland, or 97222, usa","97222","Milwaukie","OR",380592,"q4","Oregon","West","Pacific"
"219",-117.4368955,34.103569,"8270 sierra ave, fontana, ca 92335, usa","92335","Fontana","CA",367521,"q4","California","West","Pacific"
"220",-81.3004029,41.1561096,"2528 oh-59, ravenna, oh 44266, usa","44266","Ravenna","OH",137045,"q2","Ohio","Midwest","East North Central"
"221",-93.9959753,30.9187733,"314 s wheeler st, jasper, tx 75951, usa","75951","Jasper","TX",95789,"q1","Texas","South","West South Central"
"222",-123.1269611,44.099897,"75 division ave, eugene, or 97404, usa","97404","Eugene","OR",310089,"q4","Oregon","West","Pacific"
"223",-78.7845148,35.7705032,"220 kilmayne dr #220, cary, nc 27511, usa","27511","Cary","NC",307021,"q4","North Carolina","South","South Atlantic"
"224",-84.0670871,40.728648,"2100 harding hwy, lima, oh 45804, usa","45804","Lima","OH",32252,"q1","Ohio","Midwest","East North Central"
"225",-87.994303,42.0525083,"900 w algonquin rd, arlington heights, il 60005, usa","60005","Arlington Heights","IL",339834,"q4","Illinois","Midwest","East North Central"
"226",-88.0486672,42.9875795,"10909 w oklahoma ave, west allis, wi 53227, usa","53227","West Allis","WI",173158,"q3","Wisconsin","Midwest","East North Central"
"227",-81.1276702,38.0120315,"9003 fayette landing, fayetteville, wv 25840, usa","25840","Fayetteville","WV",91104,"q1","West Virginia","South","South Atlantic"
"228",-81.8333656,26.5273497,"fort myers, fl 33912, usa","33912","Fort Myers","FL",273515,"q4","Florida","South","South Atlantic"
"229",-86.2237106,39.9097485,"8450 n michigan rd, indianapolis, in 46268, usa","46268","Indianapolis","IN",163119,"q2","Indiana","Midwest","East North Central"
"230",-97.7930479,32.426298,"s morgan st, granbury, tx 76048, usa","76048","Granbury","TX",201006,"q3","Texas","South","West South Central"
"231",-80.4297834,36.0946981,"6810 shallowford rd, lewisville, nc 27023, usa","27023","Lewisville","NC",234070,"q3","North Carolina","South","South Atlantic"
"232",-93.7723197,32.4432362,"800 w 70th st, shreveport, la 71106, usa","71106","Shreveport","LA",153520,"q2","Louisiana","South","West South Central"
"233",-155.0647342,19.718905,"266 kanoelehua ave, hilo, hi 96720, usa","96720","Hilo","HI",369128,"q4","Hawaii","West","Pacific"
"234",-97.1324884,32.845425,"2101 bedford rd, bedford, tx 76021, usa","76021","Bedford","TX",279755,"q4","Texas","South","West South Central"
"235",-86.420991,35.882978,"2156 n thompson ln, murfreesboro, tn 37129, usa","37129","Murfreesboro","TN",267563,"q4","Tennessee","South","East South Central"
"236",-76.5844219,36.7786117,"2901 godwin blvd, suffolk, va 23434, usa","23434","Suffolk","VA",216791,"q3","Virginia","South","South Atlantic"
"237",-121.9762714,37.2853637,"60 s san tomas aquino rd, campbell, ca 95008, usa","95008","Campbell","CA",1308698,"q4","California","West","Pacific"
"238",-121.7783112,37.6797198,"livermore arcade shopping center, 1374 railroad ave, livermore, ca 94550, usa","94550","Livermore","CA",855644,"q4","California","West","Pacific"
"239",-111.84176,33.3963231,"1046 s country club dr, mesa, az 85210, usa","85210","Mesa","AZ",234475,"q3","Arizona","West","Mountain"
"240",-101.8683221,35.1864001,"2530 s georgia st, amarillo, tx 79109, usa","79109","Amarillo","TX",166066,"q3","Texas","South","West South Central"
"241",-79.038815,38.0347262,"2576 stuarts draft hwy, stuarts draft, va 24477, usa","24477","Stuarts Draft","VA",218425,"q3","Virginia","South","South Atlantic"
"242",-93.6115307,32.5570295,"1085 us-80, haughton, la 71037, usa","71037","Haughton","LA",179935,"q3","Louisiana","South","West South Central"
"243",-104.9800249,39.8802046,"550 e 102nd ave, thornton, co 80229, usa","80229","Thornton","CO",327630,"q4","Colorado","West","Mountain"
"244",-98.5175663,33.869703,"2301 midwestern pkwy, wichita falls, tx 76308, usa","76308","Wichita Falls","TX",142008,"q2","Texas","South","West South Central"
"245",-84.7106567,33.3931572,"newnan, ga 30265, usa","30265","Newnan","GA",251264,"q3","Georgia","South","South Atlantic"
"246",-121.5361529,38.5526502,"2455 jefferson blvd #120west, west sacramento, ca 95691, usa","95691","West Sacramento","CA",412412,"q4","California","West","Pacific"
"247",-82.5970823,34.7982006,"pelzer hwy, easley, sc, usa","sc",NA,NA,NA,"q4",NA,NA,NA
"248",-118.9147899,34.1831418,"stagecoach plaza, 1560 newbury rd #1, newbury park, ca 91320, usa","91320","Thousand Oaks","CA",714480,"q4","California","West","Pacific"
"249",-97.761412,30.357694,"3910 far w blvd, austin, tx 78731, usa","78731","Austin","TX",728361,"q4","Texas","South","West South Central"
"250",-85.5624161,44.7441453,"2889 aero-park dr, traverse city, mi 49686, usa","49686","Traverse City","MI",250552,"q3","Michigan","Midwest","East North Central"
"251",-78.8829604,38.3937103,"2400 grassy creek rd, harrisonburg, va 22801, usa","22801","Harrisonburg","VA",253818,"q3","Virginia","South","South Atlantic"
"252",-111.0070439,32.3223424,"1891 w orange grove rd, tucson, az 85704, usa","85704","Tucson","AZ",305829,"q4","Arizona","West","Mountain"
"253",-81.2448889,35.491781,"510 vaughn way, lincolnton, nc 28092, usa","28092","Lincolnton","NC",176005,"q3","North Carolina","South","South Atlantic"
"254",-78.1025402,36.7056067,"1369 e atlantic st, la crosse, va 23950, usa","23950","La Crosse","VA",91544,"q1","Virginia","South","South Atlantic"
"255",-95.4755966,29.8254433,"northwest fwy, houston, tx 77092, usa","77092","Houston","TX",227487,"q3","Texas","South","West South Central"
"256",-111.0066312,32.3036345,"w river rd, tucson, az 85705, usa","85705","Tucson","AZ",165071,"q3","Arizona","West","Mountain"
"257",-97.84517,30.3931011,"10601 ranch to market 2222, austin, tx 78730, usa","78730","Austin","TX",741979,"q4","Texas","South","West South Central"
"258",-76.5577188,39.398198,"1753 e joppa rd, parkville, md 21234, usa","21234","Parkville","MD",211247,"q3","Maryland","South","South Atlantic"
"259",-122.2103568,47.977623,"3002 hoyt ave, everett, wa 98201, usa","98201","Everett","WA",376355,"q4","Washington","West","Pacific"
"260",-89.2491698,43.1743046,"2111 mccoy rd, sun prairie, wi 53590, usa","53590","Sun Prairie","WI",274117,"q4","Wisconsin","Midwest","East North Central"
"261",-89.4512083,40.6195425,"888 n main st, morton, il 61550, usa","61550","Morton","IL",190088,"q3","Illinois","Midwest","East North Central"
"262",-66.8677563,10.4205866,"baruta, capital district, venezuela","venezuela",NA,NA,NA,"q4",NA,NA,NA
"263",-123.0972739,44.0933778,"1010 green acres rd, eugene, or 97408, usa","97408","Eugene","OR",418009,"q4","Oregon","West","Pacific"
"264",-91.2209947,43.7740302,"3954 mormon coulee rd, la crosse, wi 54601, usa","54601","La Crosse","WI",172108,"q3","Wisconsin","Midwest","East North Central"
"265",NA,NA,NA,NA,NA,NA,NA,"q4",NA,NA,NA
"266",-90.3605667,38.5240152,"10570 baptist church rd, st. louis, mo 63123, usa","63123","Affton","MO",166428,"q3","Missouri","Midwest","West North Central"
"267",-94.540804,36.184366,"120 s broadway st, siloam springs, ar 72761, usa","72761","Siloam Springs","AR",167728,"q3","Arkansas","South","West South Central"
"268",-84.8863906,35.161402,"220 grove ave sw, cleveland, tn 37311, usa","37311","Cleveland","TN",135444,"q2","Tennessee","South","East South Central"
"269",-122.838056,45.1428402,"948 n pacific hwy, woodburn, or 97071, usa","97071","Woodburn","OR",290223,"q4","Oregon","West","Pacific"
"270",-78.8485749,39.6381576,"1313 national hwy, la vale, md 21502, usa","21502","Cumberland","MD",95029,"q1","Maryland","South","South Atlantic"
"271",-81.480718,36.3942604,"1291 mt jefferson rd, west jefferson, nc 28694, usa","28694","West Jefferson","NC",204164,"q3","North Carolina","South","South Atlantic"
"272",-111.9298388,33.362418,"805 e guadalupe rd, tempe, az 85283, usa","85283","Tempe","AZ",299549,"q4","Arizona","West","Mountain"
"273",-84.544862,39.3507872,"4605 dixie hwy, fairfield, oh 45014, usa","45014","Fairfield","OH",177871,"q3","Ohio","Midwest","East North Central"
"274",-118.2227249,34.2045298,"2064 n verdugo rd unit e, glendale, ca 91208, usa","91208","Glendale","CA",1055083,"q4","California","West","Pacific"
"275",-90.0350412,38.5408772,"5720 n belt w #32belleville, belleville, il 62226, usa","62226","Belleville","IL",110748,"q2","Illinois","Midwest","East North Central"
"276",-81.3326804,41.2390851,"1703 oh-303, streetsboro, oh 44241, usa","44241","Streetsboro","OH",171600,"q3","Ohio","Midwest","East North Central"
"277",-79.6379235,37.1654337,"14807 moneta rd, moneta, va 24121, usa","24121","Moneta","VA",348701,"q4","Virginia","South","South Atlantic"
"278",-93.7650731,30.0926386,"3109 edgar brown dr, orange, tx 77630, usa","77630","Orange","TX",102688,"q1","Texas","South","West South Central"
"279",-96.6814614,40.8515169,"3910 n 27th st store 3910 n 27th, lincoln, ne 68521, usa","68521","Lincoln","NE",192616,"q3","Nebraska","Midwest","West North Central"
"280",-90.3570496,38.4852266,"4310 butler hill rd, st. louis, mo 63128, usa","63128","Concord","MO",257870,"q3","Missouri","Midwest","West North Central"
"281",-81.2525286,28.8689687,"901 doyle rd, deltona, fl 32725, usa","32725","Deltona","FL",190803,"q3","Florida","South","South Atlantic"
"282",-118.2887935,34.1700651,"1622 w glenoaks blvd, glendale, ca 91201, usa","91201","Glendale","CA",888402,"q4","California","West","Pacific"
"283",-85.2221606,41.0713996,"1516 magnavox way, fort wayne, in 46804, usa","46804","Fort Wayne","IN",193145,"q3","Indiana","Midwest","East North Central"
"284",-78.4625697,35.6447891,"508 regency park dr, clayton, nc 27520, usa","27520","Clayton","NC",211091,"q3","North Carolina","South","South Atlantic"
"285",-86.0336102,39.9251722,"9510 corporation dr, indianapolis, in 46256, usa","46256","Indianapolis","IN",230165,"q3","Indiana","Midwest","East North Central"
"286",-81.9042959,26.7236215,"17940 n tamiami trail, north fort myers, fl 33903, usa","33903","North Fort Myers","FL",180765,"q3","Florida","South","South Atlantic"
"287",-98.3725107,29.5088397,"5722 walzem rd #103, san antonio, tx 78218, usa","78218","San Antonio","TX",152000,"q2","Texas","South","West South Central"
"288",-118.3687938,33.8259225,"22220 palos verdes blvd, torrance, ca 90505, usa","90505","Torrance","CA",970421,"q4","California","West","Pacific"
"289",-115.3208852,36.1605691,"10300 w charleston blvd, las vegas, nv 89135, usa","89135","Las Vegas","NV",444334,"q4","Nevada","West","Mountain"
"290",-115.3506124,36.1608783,"11720 w charleston blvd, las vegas, nv 89135, usa","89135","Las Vegas","NV",444334,"q4","Nevada","West","Mountain"
"291",-81.726485,41.314737,"6086 royalton rd, north royalton, oh 44133, usa","44133","North Royalton","OH",232020,"q3","Ohio","Midwest","East North Central"
"292",-121.5878295,37.0145033,"845 1st st, gilroy, ca 95020, usa","95020","Gilroy","CA",769461,"q4","California","West","Pacific"
"293",-80.361605,36.265568,"622 s main st, king, nc 27021, usa","27021","King","NC",162507,"q2","North Carolina","South","South Atlantic"
"294",-97.547084,35.637994,"1900 nw 164th st, edmond, ok 73013, usa","73013","Edmond","OK",226220,"q3","Oklahoma","South","West South Central"
"295",-85.9548033,43.0607901,"1141 w randall st, coopersville, mi 49404, usa","49404","Coopersville","MI",213861,"q3","Michigan","Midwest","East North Central"
"296",-122.2854589,37.849419,"6624 san pablo ave store 6624, oakland, ca 94608, usa","94608","Oakland","CA",742323,"q4","California","West","Pacific"
"297",-112.1359691,33.3936677,"3636 w southern ave, phoenix, az 85041, usa","85041","Phoenix","AZ",223699,"q3","Arizona","West","Mountain"
"298",-121.6588564,36.6562515,"1249 s main st, salinas, ca 93901, usa","93901","Salinas","CA",546078,"q4","California","West","Pacific"
"299",-121.8920346,36.9758006,"9043 soquel dr, aptos, ca 95003, usa","95003","Aptos","CA",907545,"q4","California","West","Pacific"
"300",-119.7911111,36.8308333,"6437 n blackstone ave, fresno, ca 93710, usa","93710","Fresno","CA",276880,"q4","California","West","Pacific"
"301",-80.8740565,35.8169661,"124 4th crescent pl, statesville, nc 28625, usa","28625","Statesville","NC",172600,"q3","North Carolina","South","South Atlantic"
"302",-86.1660017,41.4468308,"1409 w plymouth st, bremen, in 46506, usa","46506","Bremen","IN",169809,"q3","Indiana","Midwest","East North Central"
"303",-95.1159678,29.6643585,"8015 spencer hwy suite c, deer park, tx 77536, usa","77536","Deer Park","TX",200107,"q3","Texas","South","West South Central"
"304",-117.4061314,47.7637119,"11804 n division st, spokane, wa 99218, usa","99218","Spokane","WA",314282,"q4","Washington","West","Pacific"
"305",-84.2304318,33.6830715,"4822 flat shoals pkwy, decatur, ga 30034, usa","30034","Panthersville","GA",163357,"q2","Georgia","South","South Atlantic"
"306",-76.7351852,38.9415552,"3871 evergreen pkwy, bowie, md 20716, usa","20716","Bowie","MD",329175,"q4","Maryland","South","South Atlantic"
"307",-96.881832,37.818552,"2336 w central ave, el dorado, ks 67042, usa","67042","El Dorado","KS",101152,"q1","Kansas","Midwest","West North Central"
"308",-81.1764453,35.9106944,"781 nc-16, taylorsville, nc 28681, usa","28681","Taylorsville","NC",161112,"q2","North Carolina","South","South Atlantic"
"309",-93.2353299,44.9814271,"1324 5th st se, minneapolis, mn 55414, usa","55414","Minneapolis","MN",306511,"q4","Minnesota","Midwest","West North Central"
"310",-81.3341184,40.8715037,"6252 middlebranch ave ne, canton, oh 44721, usa","44721","Canton","OH",180558,"q3","Ohio","Midwest","East North Central"
"311",-81.0620647,35.0116658,"4664 mt gallant rd, rock hill, sc 29732, usa","29732","Rock Hill","SC",202308,"q3","South Carolina","South","South Atlantic"
"312",-105.2618961,39.9985042,"2486 baseline rd, boulder, co 80305, usa","80305","Boulder","CO",780198,"q4","Colorado","West","Mountain"
"313",-78.921989,36.741115,"4125 halifax rd, south boston, va 24592, usa","24592","South Boston","VA",110365,"q2","Virginia","South","South Atlantic"
"314",-86.4500629,36.9591971,"campbell ln, hadley, ky 42101, usa","42101","Bowling Green","KY",148750,"q2","Kentucky","South","East South Central"
"315",-96.6958827,40.8132357,"1731 o st, lincoln, ne 68508, usa","68508","Lincoln","NE",116619,"q2","Nebraska","Midwest","West North Central"
"316",-76.5101578,39.2983261,"7928 eastern ave, baltimore, md 21224, usa","21224","Baltimore","MD",176872,"q3","Maryland","South","South Atlantic"
"317",-79.978036,39.632451,"727 fairmont rd, westover, wv 26501, usa","26501","Morgantown","WV",164188,"q3","West Virginia","South","South Atlantic"
"318",-122.2889538,47.8199056,"4027 198th st sw, lynnwood, wa 98036, usa","98036","Lynnwood","WA",545819,"q4","Washington","West","Pacific"
"319",-89.5310378,35.2271642,"6250 us-64, oakland, tn 38060, usa","38060","Oakland","TN",220597,"q3","Tennessee","South","East South Central"
"320",-121.7310788,38.5526834,"1640 e 8th st, davis, ca 95616, usa","95616","Davis","CA",716174,"q4","California","West","Pacific"
"321",-80.6720301,28.0372475,"4250 minton rd, melbourne, fl 32904, usa","32904","West Melbourne","FL",265254,"q4","Florida","South","South Atlantic"
"322",-82.493247,28.0503384,"carrollwood dr, greater carrollwood, fl 33618, usa","33618","Greater Carrollwood","FL",287188,"q4","Florida","South","South Atlantic"
"323",-94.2371623,36.4397545,"sugar creek center, bella vista, ar 72714, usa","72714","Bella Vista","AR",187110,"q3","Arkansas","South","West South Central"
"324",-88.0346274,44.4368692,"575 swan rd, de pere, wi 54115, usa","54115","De Pere","WI",232074,"q3","Wisconsin","Midwest","East North Central"
"325",-73.6196061,45.5350831,"7250 boul st-laurent, montréal, qc h2r 2x9, canada","canada",NA,NA,NA,"q4",NA,NA,NA
"326",-82.3771659,28.1917063,"2390 willow oak dr, wesley chapel, fl 33544, usa","33544","Wesley Chapel","FL",281182,"q4","Florida","South","South Atlantic"
"327",-84.1669872,33.4553112,"250 jonesboro rd, mcdonough, ga 30253, usa","30253","McDonough","GA",200823,"q3","Georgia","South","South Atlantic"
"328",-85.0273249,35.4758338,"200 able dr #1dayton, dayton, tn 37321, usa","37321","Dayton","TN",143752,"q2","Tennessee","South","East South Central"
"329",NA,NA,NA,NA,NA,NA,NA,"q4",NA,NA,NA
"330",-111.9256248,33.4744226,"2441 n scottsdale rd, scottsdale, az 85257, usa","85257","Scottsdale","AZ",349215,"q4","Arizona","West","Mountain"
"331",-77.9523595,39.4725739,"100 eagle school rd, martinsburg, wv 25404, usa","25404","Martinsburg","WV",169408,"q3","West Virginia","South","South Atlantic"
"332",-82.1565326,38.8363526,"596 silver bridge plaza, gallipolis, oh 45631, usa","45631","Gallipolis","OH",112435,"q2","Ohio","Midwest","East North Central"
"333",-88.2305045,30.6818229,"8010 airport blvd, mobile, al 36608, usa","36608","Mobile","AL",149242,"q2","Alabama","South","East South Central"
"334",-90.5146667,38.5936386,"14375 manchester rd, manchester, mo 63011, usa","63011","Ballwin","MO",304383,"q4","Missouri","Midwest","West North Central"
"335",-79.9663255,37.2222276,"4335 pheasant ridge rd suite a, roanoke, va 24014, usa","24014","Roanoke","VA",172238,"q3","Virginia","South","South Atlantic"
"336",-85.8411053,40.8159075,"1550 cass st, wabash, in 46992, usa","46992","Wabash","IN",107647,"q2","Indiana","Midwest","East North Central"
"337",-92.3805908,42.5010326,"2640 falls ave, waterloo, ia 50701, usa","50701","Waterloo","IA",136046,"q2","Iowa","Midwest","West North Central"
"338",-81.3882,31.158354,"2009 demere rd, st simons, ga 31522, usa","31522","Saint Simons Island","GA",418761,"q4","Georgia","South","South Atlantic"
"339",-81.4647173,41.0998061,"15 midway plaza, tallmadge, oh 44278, usa","44278","Tallmadge","OH",180984,"q3","Ohio","Midwest","East North Central"
"340",-80.2539172,27.1158696,"7317 sw gaines ave, stuart, fl 34997, usa","34997","Stuart","FL",274723,"q4","Florida","South","South Atlantic"
"341",-118.1854722,33.8369625,"4401 atlantic ave # 430, long beach, ca 90807, usa","90807","Long Beach","CA",644144,"q4","California","West","Pacific"
"342",-77.7351237,39.6229169,"1101 maryland ave, hagerstown, md 21740, usa","21740","Hagerstown","MD",177098,"q3","Maryland","South","South Atlantic"
"343",-92.4758317,42.5398136,"2512 white tail dr #200cedar, cedar falls, ia 50613, usa","50613","Cedar Falls","IA",192987,"q3","Iowa","Midwest","West North Central"
"344",-117.8279831,34.1278908,"1936 e rte 66, glendora, ca 91740, usa","91740","Glendora","CA",560630,"q4","California","West","Pacific"
"345",-88.4263028,44.2354692,"1800 appleton rd, menasha, wi 54952, usa","54952","Menasha","WI",153172,"q2","Wisconsin","Midwest","East North Central"
"346",-111.1256841,32.3743251,"7555 w twin peaks rd, tucson, az 85743, usa","85743","Tucson","AZ",265158,"q4","Arizona","West","Mountain"
"347",-79.7945581,34.1689288,"1551 2nd loop rd, florence, sc 29505, usa","29505","Florence","SC",149992,"q2","South Carolina","South","South Atlantic"
"348",-82.0983248,26.9838022,"3280 tamiami trail, port charlotte, fl 33952, usa","33952","Port Charlotte","FL",157220,"q2","Florida","South","South Atlantic"
"349",-119.7417809,38.9370674,"1362 u.s. hwy 395 n, gardnerville, nv 89410, usa","89410","Gardnerville","NV",434156,"q4","Nevada","West","Mountain"
"350",-79.7378187,36.6714216,"3090 a l philpott hwy, axton, va 24054, usa","24054","Axton","VA",83589,"q1","Virginia","South","South Atlantic"
"351",-121.3383366,38.5720224,"9657 folsom blvd, sacramento, ca 95827, usa","95827","Rancho Cordova","CA",342396,"q4","California","West","Pacific"
"352",-123.1398295,44.0496999,"855 seneca rd, eugene, or 97402, usa","97402","Eugene","OR",281129,"q4","Oregon","West","Pacific"
"353",-83.0385,39.3461936,"2549 western ave, chillicothe, oh 45601, usa","45601","Chillicothe","OH",125343,"q2","Ohio","Midwest","East North Central"
"354",-84.2622252,30.4478597,"1308 mahan dr, tallahassee, fl 32308, usa","32308","Tallahassee","FL",229775,"q3","Florida","South","South Atlantic"
"355",-97.4869044,35.2592375,"n interstate dr, norman, ok 73072, usa","73072","Norman","OK",219177,"q3","Oklahoma","South","West South Central"
"356",-77.447765,37.5637489,"2300 n lombardy st, richmond, va 23220, usa","23220","Richmond","VA",296015,"q4","Virginia","South","South Atlantic"
"357",-80.2953514,27.1723672,"3078 sw martin downs blvd, palm city, fl 34990, usa","34990","Palm City","FL",377909,"q4","Florida","South","South Atlantic"
"358",-95.4336856,30.0747665,"1417 spring cypress rd #111bspring, spring, tx 77373, usa","77373","Spring","TX",169474,"q3","Texas","South","West South Central"
"359",-102.6588577,38.1116179,"5525 us-50, lamar, co 81052, usa","81052","Lamar","CO",93914,"q1","Colorado","West","Mountain"
"360",-81.9426593,26.5192776,"mcgregor blvd, fort myers, fl 33908, usa","33908","Fort Myers","FL",256198,"q3","Florida","South","South Atlantic"
"361",-95.6038286,29.7343258,"12533 westheimer rd, houston, tx 77077, usa","77077","Houston","TX",303816,"q4","Texas","South","West South Central"
"362",-121.7334387,38.0034225,"2043 main street, cypress shopping center, oakley, ca 94561, usa","94561","Oakley","CA",577159,"q4","California","West","Pacific"
"363",-81.7233994,30.3193396,"4527 lenox ave, jacksonville, fl 32205, usa","32205","Jacksonville","FL",178540,"q3","Florida","South","South Atlantic"
"364",-119.8610144,36.8089738,"3702 w shaw ave, fresno, ca 93711, usa","93711","Fresno","CA",360062,"q4","California","West","Pacific"
"365",-91.98462,41.006914,"2005 w burlington ave, fairfield, ia 52556, usa","52556","Fairfield","IA",128763,"q2","Iowa","Midwest","West North Central"
"366",-101.859148,33.563678,"1940 34th st, lubbock, tx 79411, usa","79411","Lubbock","TX",80575,"q1","Texas","South","West South Central"
"367",138.8863377,-34.6037834,"lyndoch sa 5351, australia","australia",NA,NA,NA,"q4",NA,NA,NA
"368",-118.0247053,34.0676571,"11635 valley blvd unit g, el monte, ca 91732, usa","91732","El Monte","CA",510265,"q4","California","West","Pacific"
"369",-77.4378084,38.2857791,"washington square plaza, george washington, va 22405, usa","22405","Fredericksburg","VA",310222,"q4","Virginia","South","South Atlantic"
"370",-81.424392,40.847912,"4379 whipple ave nw, canton, oh 44718, usa","44718","Canton","OH",241300,"q3","Ohio","Midwest","East North Central"
"371",-80.3181145,25.8681795,"1675 w 49th st, hialeah, fl 33012, usa","33012","Hialeah","FL",251000,"q3","Florida","South","South Atlantic"
"372",-100.8471844,37.9754191,"2005 e kansas ave store 2005 e, garden city, ks 67846, usa","67846","Garden City","KS",169007,"q3","Kansas","Midwest","West North Central"
"373",-117.2930075,34.4712869,"16970 bear valley rd, victorville, ca 92395, usa","92395","Victorville","CA",254102,"q3","California","West","Pacific"
"374",-91.2209947,43.7740302,"3954 mormon coulee rd, la crosse, wi 54601, usa","54601","La Crosse","WI",172108,"q3","Wisconsin","Midwest","East North Central"
"375",-77.3626025,39.4651072,"8425 woodsboro pike, walkersville, md 21793, usa","21793","Walkersville","MD",313923,"q4","Maryland","South","South Atlantic"
"376",-122.7410428,38.3867351,"792 todd rd, santa rosa, ca 95407, usa","95407","Santa Rosa","CA",524181,"q4","California","West","Pacific"
"377",-96.6709147,34.7651931,"20th st, ada, ok 74820, usa","74820","Ada","OK",98774,"q1","Oklahoma","South","West South Central"
"378",-73.0240474,41.2491256,"1712 boston post rd, milford, ct 06460, usa","06460",NA,NA,NA,"q4",NA,NA,NA
"379",-72.7162941,41.8159333,"331 cottage grove rd, bloomfield, ct 06002, usa","06002",NA,NA,NA,"q4",NA,NA,NA
"380",-105.1008524,40.1909584,"1750 main st, longmont, co 80501, usa","80501","Longmont","CO",380188,"q4","Colorado","West","Mountain"
"381",-84.264339,35.8132393,"758 us-321, lenoir city, tn 37771, usa","37771","Lenoir City","TN",162675,"q2","Tennessee","South","East South Central"
"382",-90.3272562,38.5071541,"7321 s lindbergh blvd #50, st. louis, mo 63125, usa","63125","Lemay","MO",138419,"q2","Missouri","Midwest","West North Central"
"383",-83.7604777,40.333355,"1933 s main st, bellefontaine, oh 43311, usa","43311","Bellefontaine","OH",143225,"q2","Ohio","Midwest","East North Central"
"384",-81.7206122,26.6227136,"901 gunnery rd n, lehigh acres, fl 33971, usa","33971","Lehigh Acres","FL",185114,"q3","Florida","South","South Atlantic"
"385",-122.7697541,47.0572857,"1145 galaxy dr ne, lacey, wa 98516, usa","98516","Lacey","WA",386389,"q4","Washington","West","Pacific"
"386",-76.7859472,39.1695929,"7351 assateague dr #410jessup, jessup, md 20794, usa","20794","Jessup","MD",341294,"q4","Maryland","South","South Atlantic"
"387",-80.1822544,39.4326303,"50 southland dr, white hall, wv 26554, usa","26554","Fairmont","WV",128740,"q2","West Virginia","South","South Atlantic"
"388",-122.1725915,48.0802754,"9315 state ave, marysville, wa 98270, usa","98270","Marysville","WA",405334,"q4","Washington","West","Pacific"
"389",-85.7582533,38.3119458,"1212 applegate ln, clarksville, in 47129, usa","47129","Clarksville","IN",134215,"q2","Indiana","Midwest","East North Central"
"390",-84.8218812,33.9105106,"457 nathan dean blvd, dallas, ga 30132, usa","30132","Dallas","GA",232039,"q3","Georgia","South","South Atlantic"
"391",-104.9418513,39.6707253,"2553 s colorado blvd #106denver, denver, co 80222, usa","80222","Denver","CO",475679,"q4","Colorado","West","Mountain"
"392",-73.648515,45.5745846,"2407 rue fleury e, montréal, qc h2b 1l1, canada","canada",NA,NA,NA,"q4",NA,NA,NA
"393",-96.582073,33.639842,"2206 e lamar st, sherman, tx 75090, usa","75090","Sherman","TX",119732,"q2","Texas","South","West South Central"
"394",-77.821399,39.435825,"83 maddex square dr, shepherdstown, wv 25443, usa","25443","Shepherdstown","WV",297424,"q4","West Virginia","South","South Atlantic"
"395",-86.1932276,32.3398246,"2775 bell rd, montgomery, al 36117, usa","36117","Montgomery","AL",177949,"q3","Alabama","South","East South Central"
"396",-121.3621928,38.5957648,"4399 arden way, sacramento, ca 95864, usa","95864","Arden-Arcade","CA",520289,"q4","California","West","Pacific"
"397",-80.4456434,37.1290302,"radford rd, christiansburg, va 24073, usa","24073","Christiansburg","VA",194145,"q3","Virginia","South","South Atlantic"
"398",-98.8052908,29.3655365,"9012897 us-90, castroville, tx 78009, usa","78009","Castroville","TX",272297,"q4","Texas","South","West South Central"
"399",-85.3817334,35.3809421,"520 rankin ave, dunlap, tn 37327, usa","37327","Dunlap","TN",129788,"q2","Tennessee","South","East South Central"
"400",-82.8414718,38.5752969,"5 us-23, greenup, ky 41144, usa","41144","Argillite","KY",90635,"q1","Kentucky","South","East South Central"
"401",-122.5764649,47.3072277,"5500 olympic dr, gig harbor, wa 98335, usa","98335","Gig Harbor","WA",575008,"q4","Washington","West","Pacific"
"402",-77.5345122,39.7397419,"11105 buchanan trail e, waynesboro, pa 17268, usa","17268","Washington Township","PA",169107,"q3","Pennsylvania","Northeast","Middle Atlantic"
"403",-79.8395658,40.1359696,"140 finley rd, belle vernon, pa 15012, usa","15012","Rostraver Township","PA",115431,"q2","Pennsylvania","Northeast","Middle Atlantic"
"404",-81.7968999,30.125187,"1300 blanding blvd, orange park, fl 32065, usa","32065","Orange Park","FL",225105,"q3","Florida","South","South Atlantic"
"405",-104.7912488,38.7950407,"2007 s circle dr, colorado springs, co 80906, usa","80906","Colorado Springs","CO",409942,"q4","Colorado","West","Mountain"
"406",-98.8523856,30.2590365,"1420 e main st #700fredericksburg, fredericksburg, tx 78624, usa","78624","Fredericksburg","TX",339334,"q4","Texas","South","West South Central"
"407",-112.0274317,34.731159,"89 az-89a #1427cottonwood, cottonwood, az 86326, usa","86326","Cottonwood","AZ",244855,"q3","Arizona","West","Mountain"
"408",-76.3830817,37.0387578,"1911 saville row, hampton, va 23666, usa","23666","Hampton","VA",187071,"q3","Virginia","South","South Atlantic"
"409",-82.8274109,42.1787985,"216 talbot st n s. unit, essex, on n0r, canada","canada",NA,NA,NA,"q4",NA,NA,NA
"410",-95.8453571,29.7049611,"5929 fm 1463 #150katy, katy, tx 77494, usa","77494","Katy","TX",334918,"q4","Texas","South","West South Central"
"411",-106.5145479,35.091058,"1108 juan tabo blvd ne, albuquerque, nm 87112, usa","87112","Albuquerque","NM",198467,"q3","New Mexico","West","Mountain"
"412",-94.1874337,30.3487238,"pine st, silsbee, tx 77656, usa","77656","Silsbee","TX",129141,"q2","Texas","South","West South Central"
"413",-86.8451706,40.42011,"101 shenandoah dr, lafayette, in 47905, usa","47905","Lafayette","IN",178227,"q3","Indiana","Midwest","East North Central"
"414",-118.325982,34.0931726,"1218 vine st, los angeles, ca 90038, usa","90038","Los Angeles","CA",978631,"q4","California","West","Pacific"
"415",-80.3670577,25.7013233,"10805 sw 72nd st #2, miami, fl 33173, usa","33173","Kendall","FL",358212,"q4","Florida","South","South Atlantic"
"416",-117.2046361,32.7505715,"3663 rosecrans st building b, san diego, ca 92110, usa","92110","San Diego","CA",689175,"q4","California","West","Pacific"
"417",-80.4987126,37.2903596,"109 blue grass trail, newport, va 24128, usa","24128","Newport","VA",191033,"q3","Virginia","South","South Atlantic"
"418",-94.1137822,46.6936874,"co rd 66, crosslake, mn 56442, usa","56442","Cross Lake","MN",312661,"q4","Minnesota","Midwest","West North Central"
"419",-80.2691942,35.9952813,"3500 old salisbury rd, winston-salem, nc 27127, usa","27127","Winston-Salem","NC",145280,"q2","North Carolina","South","South Atlantic"
"420",-120.6564559,35.4745234,"8310 el camino real, atascadero, ca 93422, usa","93422","Atascadero","CA",536740,"q4","California","West","Pacific"
"421",-112.1417174,33.6993882,"23425 n 39th dr, glendale, az 85310, usa","85310","Phoenix","AZ",340745,"q4","Arizona","West","Mountain"
"422",-82.1962503,34.6905,"319 s main st, fountain inn, sc 29644, usa","29644","Fountain Inn","SC",193299,"q3","South Carolina","South","South Atlantic"
"423",-93.2878379,44.8596768,"7845 lyndale ave s, bloomington, mn 55420, usa","55420","Bloomington","MN",269798,"q4","Minnesota","Midwest","West North Central"
"424",-77.6165146,37.5075838,"1211 alverser dr, midlothian, va 23113, usa","23113","Midlothian","VA",456971,"q4","Virginia","South","South Atlantic"
"425",-124.2868808,42.0544793,"890 chetco ave, brookings, or 97415, usa","97415","Brookings","OR",364191,"q4","Oregon","West","Pacific"
"426",-91.4054923,39.5881682,"403 1st st, new london, mo 63459, usa","63459","New London","MO",149911,"q2","Missouri","Midwest","West North Central"
"427",NA,NA,NA,NA,NA,NA,NA,"q4",NA,NA,NA
"428",-121.1752676,44.2958298,"2067 nw 6th st, redmond, or 97756, usa","97756","Redmond","OR",328968,"q4","Oregon","West","Pacific"
"429",-95.226953,30.0679727,"1800 northpark dr ste. a, kingwood, tx 77339, usa","77339","Houston","TX",209555,"q3","Texas","South","West South Central"
"430",-77.0986239,38.7352841,"8228 richmond hwy, alexandria, va 22309, usa","22309","Mount Vernon","VA",453467,"q4","Virginia","South","South Atlantic"
"431",-92.5161571,44.0442679,"1987 scott rd nw, rochester, mn 55901, usa","55901","Rochester","MN",235425,"q3","Minnesota","Midwest","West North Central"
"432",-101.937837,33.539576,"5710 tx-327 spur, lubbock, tx 79424, usa","79424","Lubbock","TX",219654,"q3","Texas","South","West South Central"
"433",-121.240191,37.7982417,"1477 w yosemite ave, manteca, ca 95337, usa","95337","Manteca","CA",464594,"q4","California","West","Pacific"
"434",-83.7253623,41.6895851,"7620 w sylvania ave, sylvania, oh 43560, usa","43560","Sylvania","OH",211936,"q3","Ohio","Midwest","East North Central"
"435",-97.501636,35.3491849,"741 nw 12th st, moore, ok 73160, usa","73160","Moore","OK",151128,"q2","Oklahoma","South","West South Central"
"436",-123.8051721,46.9753938,"1103 e wishkah blvd, aberdeen, wa 98520, usa","98520","Aberdeen","WA",158443,"q2","Washington","West","Pacific"
"437",-80.4666606,37.7680539,"15 red oaks shopping center, ronceverte, wv 24970, usa","24970","Ronceverte","WV",109254,"q2","West Virginia","South","South Atlantic"
"438",-83.0225964,42.2994398,"1643 mcdougall st, windsor, on n8x 3m9, canada","canada",NA,NA,NA,"q4",NA,NA,NA
"439",-99.31637,38.901236,"1010 e 43rd st, hays, ks 67601, usa","67601","Hays","KS",178946,"q3","Kansas","Midwest","West North Central"
"440",-117.8510202,33.7595709,"1800 n grand ave, santa ana, ca 92705, usa","92705","North Tustin","CA",935005,"q4","California","West","Pacific"
"441",-97.3303061,30.1040618,"107 childers dr, bastrop, tx 78602, usa","78602","Bastrop","TX",239883,"q3","Texas","South","West South Central"
"442",-73.7923884,40.7247305,"80-00 utopia pkwy, jamaica, ny 11432, usa","11432","New York","NY",631030,"q4","New York","Northeast","Middle Atlantic"
"443",-80.2046397,36.1579335,"5000 old walkertown rd, winston-salem, nc 27105, usa","27105","Winston-Salem","NC",83979,"q1","North Carolina","South","South Atlantic"
"444",-89.9966849,35.1370628,"1939 madison ave, memphis, tn 38104, usa","38104","Memphis","TN",225170,"q3","Tennessee","South","East South Central"
"445",-92.1367918,37.7978766,"1018 missouri ave, st robert, mo 65584, usa","65584","Saint Robert","MO",172912,"q3","Missouri","Midwest","West North Central"
"446",-102.324588,31.897299,"4212 preston smith rd, odessa, tx 79762, usa","79762","Odessa","TX",202746,"q3","Texas","South","West South Central"
"447",-80.3663722,37.1926959,"910 lusters gate rd, christiansburg, va 24073, usa","24073","Christiansburg","VA",194145,"q3","Virginia","South","South Atlantic"
"448",-83.3344056,36.20246,"2812 w andrew johnson hwy, morristown, tn 37814, usa","37814","Morristown","TN",147694,"q2","Tennessee","South","East South Central"
"449",-85.9736535,39.8588403,"5720 sunnyside rd, indianapolis, in 46235, usa","46235","Indianapolis","IN",129402,"q2","Indiana","Midwest","East North Central"
"450",-84.1859586,39.6268708,"950 miamisburg centerville rd, washington township, oh 45459, usa","45459","Centerville","OH",227589,"q3","Ohio","Midwest","East North Central"
"451",-90.3150587,38.8014246,"1760 n new florissant rd, florissant, mo 63033, usa","63033","Florissant","MO",132074,"q2","Missouri","Midwest","West North Central"
"452",-115.2788201,36.2839309,"6765 n durango dr, las vegas, nv 89149, usa","89149","Las Vegas","NV",327731,"q4","Nevada","West","Mountain"
"453",-122.3377252,48.4342037,"242 e college way, mt vernon, wa 98273, usa","98273","Mount Vernon","WA",364734,"q4","Washington","West","Pacific"
"454",-90.6039729,38.6645853,"17355 edison ave, chesterfield, mo 63005, usa","63005","Chesterfield","MO",564934,"q4","Missouri","Midwest","West North Central"
"455",-91.8833274,39.161833,"54 south st, mexico, mo 65265, usa","65265","Mexico","MO",103175,"q1","Missouri","Midwest","West North Central"
"456",-89.6123256,40.6785607,"403 s olive st, peoria, il 61605, usa","61605",NA,NA,NA,"q4",NA,NA,NA
"457",-88.2726541,42.1615212,"1430 e algonquin rd, algonquin, il 60102, usa","60102","Algonquin","IL",260479,"q3","Illinois","Midwest","East North Central"
"458",-121.3819912,38.5738729,"3516 fair oaks blvd ste a, sacramento, ca 95864, usa","95864","Arden-Arcade","CA",520289,"q4","California","West","Pacific"
"459",-90.2833781,38.5586113,"7800 morganford rd, st. louis, mo 63123, usa","63123","Affton","MO",166428,"q3","Missouri","Midwest","West North Central"
"460",-122.3113078,47.7344329,"14500 15th ave ne, shoreline, wa 98155, usa","98155","Shoreline","WA",606182,"q4","Washington","West","Pacific"
"461",-77.3420758,37.1548038,"3356 union branch rd, petersburg, va 23805, usa","23805","Petersburg","VA",141247,"q2","Virginia","South","South Atlantic"
"462",-79.9100071,37.3952977,"125 commons pkwy, daleville, va 24083, usa","24083","Daleville","VA",321413,"q4","Virginia","South","South Atlantic"
"463",-85.2857919,34.7049406,"100 mize st, lafayette, ga 30728, usa","30728","Lafayette","GA",118108,"q2","Georgia","South","South Atlantic"
"464",-75.6664925,41.3948553,"925 prospect ave, scranton, pa 18505, usa","18505","Scranton","PA",95674,"q1","Pennsylvania","Northeast","Middle Atlantic"
"465",-82.9784229,42.3050271,"3799 tecumseh rd e, windsor, on n8w 1h8, canada","canada",NA,NA,NA,"q4",NA,NA,NA
"466",-77.4927197,38.24354,"4701 market st, fredericksburg, va 22408, usa","22408","Fredericksburg","VA",289853,"q4","Virginia","South","South Atlantic"
"467",-82.0454524,39.0078212,"786 n 2nd ave, middleport, oh 45760, usa","45760","Middleport","OH",51432,"q1","Ohio","Midwest","East North Central"
"468",-79.7736306,43.3804487,"burlington, on l7l, canada","canada",NA,NA,NA,"q4",NA,NA,NA
"469",-80.2752281,39.2821577,"1210 w main st, bridgeport, wv 26330, usa","26330","Bridgeport","WV",221439,"q3","West Virginia","South","South Atlantic"
"470",-78.7527446,42.9127329,"3637 union rd, cheektowaga, ny 14225, usa","14225","Cheektowaga","NY",138716,"q2","New York","Northeast","Middle Atlantic"
"471",-76.2061753,40.0266658,"2353 lincoln hwy e, lancaster, pa 17602, usa","17602","Lancaster Township","PA",194444,"q3","Pennsylvania","Northeast","Middle Atlantic"
"472",-74.1146823,41.0024858,"23 hollywood ave, ho-ho-kus, nj 07423, usa","07423",NA,NA,NA,"q4",NA,NA,NA
"473",-89.3999426,43.0704831,"frederic ogg residence hall, 835 w dayton st, madison, wi 53706, usa","53706",NA,NA,NA,"q4",NA,NA,NA
"474",-82.9464526,42.3382121,"298 lauzon rd, windsor, on n8s 3l6, canada","canada",NA,NA,NA,"q4",NA,NA,NA
"475",-86.1970461,39.6640721,"2136 w southport rd, indianapolis, in 46217, usa","46217","Indianapolis","IN",168686,"q3","Indiana","Midwest","East North Central"
"476",-75.63547,41.4149816,"1501 wheeler ave, dunmore, pa 18512, usa","18512","Dunmore","PA",126801,"q2","Pennsylvania","Northeast","Middle Atlantic"
"477",-95.6458978,29.8592707,"5569 hwy 6 n, houston, tx 77084, usa","77084","Houston","TX",184907,"q3","Texas","South","West South Central"
"478",-106.6727149,35.1728954,"6636 caminito coors nw, albuquerque, nm 87120, usa","87120","Albuquerque","NM",214370,"q3","New Mexico","West","Mountain"
"479",-73.937478,40.800794,"2211 3rd ave, new york, ny 10035, usa","10035","New York","NY",643280,"q4","New York","Northeast","Middle Atlantic"
"480",-93.3749917,30.2252551,"1610 ruth st, sulphur, la 70663, usa","70663","Sulphur","LA",163971,"q2","Louisiana","South","West South Central"
"481",-85.4448105,40.2186675,"5035 hessler rd, muncie, in 47304, usa","47304","Muncie","IN",127064,"q2","Indiana","Midwest","East North Central"
"482",-89.7937583,35.0593766,"3315 hacks cross rd, memphis, tn 38119, usa","38119","Memphis","TN",207941,"q3","Tennessee","South","East South Central"
"483",-84.1908605,39.8469171,"6868 miller ln, dayton, oh 45414, usa","45414","Dayton","OH",103668,"q1","Ohio","Midwest","East North Central"
"484",-79.3552359,37.7371247,"2277 beech ave #501, buena vista, va 24416, usa","24416","Buena Vista","VA",110353,"q2","Virginia","South","South Atlantic"
"485",-118.0211856,33.9240815,"14535 telegraph rd, la mirada, ca 90638, usa","90638","La Mirada","CA",600793,"q4","California","West","Pacific"
"486",-78.942787,35.043209,"3801 raeford rd, fayetteville, nc 28304, usa","28304","Fayetteville","NC",102354,"q1","North Carolina","South","South Atlantic"
"487",-96.7049816,40.8132508,"1111 o st #205lincoln, lincoln, ne 68508, usa","68508","Lincoln","NE",116619,"q2","Nebraska","Midwest","West North Central"
"488",-117.2559229,33.0466873,"1520 encinitas blvd, encinitas, ca 92024, usa","92024","Encinitas","CA",1082132,"q4","California","West","Pacific"
"489",-85.5067597,38.2409985,"huntington ridge dr, louisville, ky 40223, usa","40223","Louisville","KY",284169,"q4","Kentucky","South","East South Central"
"490",-75.0993738,40.0054775,"1440 e erie ave, philadelphia, pa 19124, usa","19124","Philadelphia","PA",121402,"q2","Pennsylvania","Northeast","Middle Atlantic"
"491",-80.4219446,25.6871907,"14091 sw 88th st, miami, fl 33183, usa","33183","Kendale Lakes","FL",257062,"q3","Florida","South","South Atlantic"
"492",-75.593619,38.7364091,"18178 sussex hwy, bridgeville, de 19933, usa","19933","Bridgeville","DE",230411,"q3","Delaware","South","South Atlantic"
"493",-83.6639744,42.9450501,"2219 hill rd, grand blanc, mi 48439, usa","48439","Grand Blanc","MI",192071,"q3","Michigan","Midwest","East North Central"
"494",-80.3078543,25.8846851,"6800 w 12th ave, hialeah, fl 33014, usa","33014","Hialeah","FL",270592,"q4","Florida","South","South Atlantic"
"495",-122.0608554,37.9534803,"1699 contra costa blvd gregory village shopping center, pleasant hill, ca 94523, usa","94523","Pleasant Hill","CA",675948,"q4","California","West","Pacific"
"496",-120.4708426,37.3169902,"32 w olive ave, merced, ca 95348, usa","95348","Merced","CA",278503,"q4","California","West","Pacific"
"497",-101.7231882,34.1839634,"1715 w 5th st, plainview, tx 79072, usa","79072","Plainview","TX",83314,"q1","Texas","South","West South Central"
"498",-94.7810523,31.1868805,"212 n temple dr, diboll, tx 75941, usa","75941","Diboll","TX",112605,"q2","Texas","South","West South Central"
"499",-82.622893,28.0569528,"12051 whitmarsh ln, tampa, fl 33626, usa","33626","Westchase","FL",365166,"q4","Florida","South","South Atlantic"
"500",-97.898901,38.07339,"1707 waldron st, hutchinson, ks 67502, usa","67502","Hutchinson","KS",152352,"q2","Kansas","Midwest","West North Central"
"501",-80.281206,25.8260514,"461 palm ave, hialeah, fl 33010, usa","33010","Hialeah","FL",318770,"q4","Florida","South","South Atlantic"
"502",-88.8302394,35.6965032,"15 w university pkwy, jackson, tn 38305, usa","38305","Jackson","TN",154152,"q2","Tennessee","South","East South Central"
"503",-89.6726947,39.77385,"1220 outer park dr, springfield, il 62704, usa","62704","Springfield","IL",127200,"q2","Illinois","Midwest","East North Central"
"504",-84.3581557,41.3003143,"1005 n clinton st ste a, defiance, oh 43512, usa","43512","Defiance","OH",125273,"q2","Ohio","Midwest","East North Central"
"505",-104.956203,39.7254155,"575 clayton st, denver, co 80206, usa","80206","Denver","CO",724673,"q4","Colorado","West","Mountain"
"506",-84.1503151,39.7228189,"1040 patterson rd, dayton, oh 45420, usa","45420","Dayton","OH",96329,"q1","Ohio","Midwest","East North Central"
"507",-83.5921435,36.4447819,"511 cross st, new tazewell, tn 37825, usa","37825","New Tazewell","TN",127859,"q2","Tennessee","South","East South Central"
"508",-85.2233576,35.0037146,"5082 south terrace, chattanooga, tn 37412, usa","37412","East Ridge","TN",137214,"q2","Tennessee","South","East South Central"
"509",-122.17721,47.5055097,"3210 ne sunset blvd, renton, wa 98056, usa","98056","Renton","WA",575902,"q4","Washington","West","Pacific"
"510",-100.3152233,44.3843779,"1902 eastgate ave, pierre, sd 57501, usa","57501","Pierre","SD",215467,"q3","South Dakota","Midwest","West North Central"
"511",-121.0682786,38.6517331,"4540 post st #250el, el dorado hills, ca 95762, usa","95762","El Dorado Hills","CA",668773,"q4","California","West","Pacific"
"512",-73.4781995,40.6931145,"814 hicksville rd, north massapequa, ny 11758, usa","11758","Massapequa","NY",521833,"q4","New York","Northeast","Middle Atlantic"
"513",-92.3997152,38.3816446,"14110 redfield dr, eugene, mo 65032, usa","65032","Eugene","MO",167199,"q3","Missouri","Midwest","West North Central"
"514",-80.9900093,35.061542,"1600 gold hill rd, fort mill, sc 29708, usa","29708","Fort Mill","SC",323658,"q4","South Carolina","South","South Atlantic"
"515",-86.2671222,43.1915758,"950 w norton ave suite b, muskegon, mi 49441, usa","49441","Norton Shores","MI",149875,"q2","Michigan","Midwest","East North Central"
"516",-114.0275137,50.9284738,"1140 137 ave se, calgary, ab t2j 7g1, canada","canada",NA,NA,NA,"q4",NA,NA,NA
"517",-86.0578195,35.4613476,"2161 hillsboro blvd, manchester, tn 37355, usa","37355","Manchester","TN",160027,"q2","Tennessee","South","East South Central"
"518",-82.458732,43.0293742,"4177 24th ave, fort gratiot twp, mi 48059, usa","48059","Fort Gratiot","MI",173250,"q3","Michigan","Midwest","East North Central"
"519",-80.2294301,38.9925204,"15 s spring st, buckhannon, wv 26201, usa","26201","Buckhannon","WV",115021,"q2","West Virginia","South","South Atlantic"
"520",-85.3362277,37.076991,"dohoney trce, kentucky 42728, usa","42728","Columbia","KY",107322,"q2","Kentucky","South","East South Central"
"521",-76.1446825,36.8157069,"4770 princess anne rd, virginia beach, va 23462, usa","23462","Virginia Beach","VA",214049,"q3","Virginia","South","South Atlantic"
"522",-81.2004982,35.6927688,"413 thornburg dr se, conover, nc 28613, usa","28613","Conover","NC",163934,"q2","North Carolina","South","South Atlantic"
"523",-94.2728989,39.0037501,"mo-7, blue springs, mo 64014, usa","64014","Blue Springs","MO",194134,"q3","Missouri","Midwest","West North Central"
"524",-82.7677011,28.0717015,"palm harbor, fl 34682, usa","34682",NA,NA,NA,"q4",NA,NA,NA
"525",NA,NA,NA,NA,NA,NA,NA,"q4",NA,NA,NA
"526",-87.658516,45.0817603,"2200 roosevelt rd, marinette, wi 54143, usa","54143","Marinette","WI",108296,"q2","Wisconsin","Midwest","East North Central"
"527",-97.4358348,32.720863,"6908 camp bowie blvd, fort worth, tx 76116, usa","76116","Fort Worth","TX",210559,"q3","Texas","South","West South Central"
"528",-117.0859904,33.482693,"32705 temecula pkwy bldg. d, temecula, ca 92592, usa","92592","Temecula","CA",490701,"q4","California","West","Pacific"
"529",-80.0032444,42.1449019,"1980 nagle rd, erie, pa 16510, usa","16510","Erie","PA",121345,"q2","Pennsylvania","Northeast","Middle Atlantic"
"530",-80.1348574,36.1646333,"5208 neals trail dr, walkertown, nc 27051, usa","27051","Walkertown","NC",146340,"q2","North Carolina","South","South Atlantic"
"531",-86.9731236,34.7999987,"400 s jefferson st, athens, al 35611, usa","35611","Athens","AL",125758,"q2","Alabama","South","East South Central"
"532",-85.1762466,42.261547,"6085 b dr n, battle creek, mi 49014, usa","49014","Battle Creek","MI",148729,"q2","Michigan","Midwest","East North Central"
"533",-85.3863552,39.9149522,"1719 s memorial dr, new castle, in 47362, usa","47362","New Castle","IN",82555,"q1","Indiana","Midwest","East North Central"
"534",-97.1219444,32.7058333,"1100 w arkansas ln, arlington, tx 76013, usa","76013","Arlington","TX",220588,"q3","Texas","South","West South Central"
"535",-121.1710724,38.7442777,"6961 douglas blvd, granite bay, ca 95746, usa","95746","Granite Bay","CA",807552,"q4","California","West","Pacific"
"536",-77.9346076,35.3845377,"1213 parkway dr, goldsboro, nc 27534, usa","27534","Goldsboro","NC",150689,"q2","North Carolina","South","South Atlantic"
"537",-95.6514453,29.6393783,"22661 s texas 6, sugar land, tx 77498, usa","77498","Sugar Land","TX",230127,"q3","Texas","South","West South Central"
"538",-94.4538185,39.2740913,"n cedar ave, kansas city, mo 64157, usa","64157","Kansas City","MO",291282,"q4","Missouri","Midwest","West North Central"
"539",-81.8084911,38.4108063,"210 nitro market pl, nitro, wv 25143, usa","25143","Nitro","WV",88403,"q1","West Virginia","South","South Atlantic"
"540",-122.3261358,47.7069892,"401 ne northgate way, seattle, wa 98125, usa","98125","Seattle","WA",669718,"q4","Washington","West","Pacific"
"541",NA,NA,NA,NA,NA,NA,NA,"q4",NA,NA,NA
"542",NA,NA,NA,NA,NA,NA,NA,"q4",NA,NA,NA
"543",-114.1539556,51.0920607,"4625 varsity dr nw, calgary, ab t3a 0x9, canada","canada",NA,NA,NA,"q4",NA,NA,NA
"544",-118.2285609,34.1480325,"267 harvey dr, glendale, ca 91206, usa","91206","Glendale","CA",860937,"q4","California","West","Pacific"
"545",-88.4143832,35.6572957,"676 w church st, lexington, tn 38351, usa","38351","Lexington","TN",115759,"q2","Tennessee","South","East South Central"
"546",-122.3257417,37.9361402,"12341 san pablo ave, richmond, ca 94805, usa","94805","Richmond","CA",569959,"q4","California","West","Pacific"
"547",-89.3758917,43.0810465,"10 n livingston st, madison, wi 53703, usa","53703","Madison","WI",365249,"q4","Wisconsin","Midwest","East North Central"
"548",-78.8153768,42.9919098,"3980 maple rd, amherst, ny 14226, usa","14226","Town Of Amherst","NY",191906,"q3","New York","Northeast","Middle Atlantic"
"549",-120.9954767,37.6766894,"2401 mchenry ave suite b, modesto, ca 95350, usa","95350","Modesto","CA",298943,"q4","California","West","Pacific"
"550",-94.6520983,31.6024531,"503 e main st, nacogdoches, tx 75961, usa","75961","Nacogdoches","TX",124376,"q2","Texas","South","West South Central"
"551",-123.3486394,39.3901335,"1728 s main st, willits, ca 95490, usa","95490","Willits","CA",272173,"q4","California","West","Pacific"
"552",-75.151181,39.94178,"508 south st, philadelphia, pa 19147, usa","19147","Philadelphia","PA",426908,"q4","Pennsylvania","Northeast","Middle Atlantic"
"553",-82.3942965,28.0532961,"5515 e fowler ave, temple terrace, fl 33617, usa","33617","Temple Terrace","FL",184624,"q3","Florida","South","South Atlantic"
"554",-75.4935679,40.6457436,"2675 macarthur rd, whitehall, pa 18052, usa","18052","Whitehall Township","PA",202968,"q3","Pennsylvania","Northeast","Middle Atlantic"
"555",-79.8725733,36.5785802,"95 blackfeather trail, ridgeway, va 24148, usa","24148","Ridgeway","VA",101340,"q1","Virginia","South","South Atlantic"
"556",-82.35,40.12,"newark, oh 43058, usa","43058",NA,NA,NA,"q4",NA,NA,NA
"557",-121.6549131,37.1314293,"17630 monterey rd, morgan hill, ca 95037, usa","95037","Morgan Hill","CA",949789,"q4","California","West","Pacific"
"558",-71.1635807,42.4590092,"400 cambridge st, winchester, ma 01890, usa","01890",NA,NA,NA,"q4",NA,NA,NA
"559",-83.2161299,37.296313,"commerce drive, hazard, ky 41701, usa","41701","Hazard","KY",92603,"q1","Kentucky","South","East South Central"
"560",-96.8471819,39.0288331,"1008 w 6th st, junction city, ks 66441, usa","66441","Junction City","KS",141059,"q2","Kansas","Midwest","West North Central"
"561",NA,NA,NA,NA,NA,NA,NA,"q4",NA,NA,NA
"562",-85.1572532,35.0139389,"7601 e brainerd rd, chattanooga, tn 37421, usa","37421","Chattanooga","TN",218589,"q3","Tennessee","South","East South Central"
"563",-91.151639,40.8119146,"165 w burlington ave, west burlington, ia 52655, usa","52655","West Burlington","IA",128669,"q2","Iowa","Midwest","West North Central"
"564",NA,NA,NA,NA,NA,NA,NA,"q4",NA,NA,NA
"565",-118.1068271,34.0199768,"820 w beverly blvd, montebello, ca 90640, usa","90640","Montebello","CA",562371,"q4","California","West","Pacific"
"566",-95.6710222,31.7331293,"3824 w oak st, palestine, tx 75801, usa","75801","Palestine","TX",96099,"q1","Texas","South","West South Central"
"567",-87.9068908,43.0324265,"190 n broadway, milwaukee, wi 53202, usa","53202","Milwaukee","WI",264282,"q4","Wisconsin","Midwest","East North Central"
"568",-73.778817,40.9164914,"28 joyce rd, new rochelle, ny 10801, usa","10801","New Rochelle","NY",571119,"q4","New York","Northeast","Middle Atlantic"
"569",-89.0891566,42.279744,"850 n church st, rockford, il 61103, usa","61103","Rockford","IL",70405,"q1","Illinois","Midwest","East North Central"
"570",-122.8785469,42.330516,"604 n fir st, medford, or 97501, usa","97501","Medford","OR",262655,"q3","Oregon","West","Pacific"
"571",-122.3138524,47.5968125,"1400 s lane st, seattle, wa 98144, usa","98144","Seattle","WA",736402,"q4","Washington","West","Pacific"
"572",-83.1800808,35.9668633,"452 eastern plaza way, newport, tn 37821, usa","37821","Newport","TN",104045,"q1","Tennessee","South","East South Central"
"573",-85.2423282,35.1363119,"1966 northpoint blvd, hixson, tn 37343, usa","37343","Chattanooga","TN",203325,"q3","Tennessee","South","East South Central"
"574",-95.172376,29.9967445,"7034 fm 1960, humble, tx 77346, usa","77346","Atascocita","TX",222249,"q3","Texas","South","West South Central"
"575",-122.6832664,47.6565007,"10001 mickelberry rd nw, silverdale, wa 98383, usa","98383","Silverdale","WA",418124,"q4","Washington","West","Pacific"
"576",-80.2852204,25.7340864,"bird rd, miami, fl, usa","fl",NA,NA,NA,"q4",NA,NA,NA
"577",-86.2437555,32.3558572,"1661 perry hill rd, montgomery, al 36106, usa","36106","Montgomery","AL",134462,"q2","Alabama","South","East South Central"
"578",-88.3389606,42.1213593,"7777 miller rd, carpentersville, il 60110, usa","60110","Carpentersville","IL",170922,"q3","Illinois","Midwest","East North Central"
"579",-85.6840164,35.0409827,"361 kimball crossing dr, kimball, tn 37347, usa","37347","Jasper","TN",136303,"q2","Tennessee","South","East South Central"
"580",-77.4703082,37.7412686,"10485 dow gil rd, ashland, va 23005, usa","23005","Ashland","VA",282692,"q4","Virginia","South","South Atlantic"
"581",-79.6945584,43.4390261,"400 speers rd, oakville, on l6k 2g2, canada","canada",NA,NA,NA,"q4",NA,NA,NA
"582",-79.9529325,40.8794773,"370 new castle rd, butler, pa 16001, usa","16001","Butler Township","PA",166173,"q3","Pennsylvania","Northeast","Middle Atlantic"
"583",-122.4423881,47.2353168,"714 s 27th st, tacoma, wa 98409, usa","98409","Tacoma","WA",290754,"q4","Washington","West","Pacific"
"584",-75.209321,40.0221503,"5400 ridge ave, philadelphia, pa 19128, usa","19128","Philadelphia","PA",265094,"q4","Pennsylvania","Northeast","Middle Atlantic"
"585",-81.7992911,41.4058611,"14690 snow rd, brook park, oh 44142, usa","44142","Brook Park","OH",136019,"q2","Ohio","Midwest","East North Central"
"586",-83.085591,40.5794602,"1637 marion-mt gilead rd, marion, oh 43302, usa","43302","Marion","OH",90873,"q1","Ohio","Midwest","East North Central"
"587",-86.1514245,39.7040057,"4200 s east st #27aindianapolis, indianapolis, in 46227, usa","46227","Indianapolis","IN",156933,"q2","Indiana","Midwest","East North Central"
"588",-83.9876489,34.0872284,"1955 buford mill dr, buford, ga 30519, usa","30519","Buford","GA",277307,"q4","Georgia","South","South Atlantic"
"589",-85.9915842,40.030217,"16650 mercantile blvd, noblesville, in 46060, usa","46060","Noblesville","IN",213235,"q3","Indiana","Midwest","East North Central"
"590",-97.4112082,32.3393241,"w henderson st, cleburne, tx 76031, usa","76031","Cleburne","TX",170923,"q3","Texas","South","West South Central"
"591",-97.5362138,35.4623084,"1320 w reno ave, oklahoma city, ok 73108, usa","73108","Oklahoma City","OK",49145,"q1","Oklahoma","South","West South Central"
"592",-118.4567118,34.043137,"11726 santa monica blvd, los angeles, ca 90025, usa","90025","Los Angeles","CA",1013475,"q4","California","West","Pacific"
"593",-77.3966782,34.7802264,"1113 western blvd store 1113, jacksonville, nc 28546, usa","28546","Jacksonville","NC",157296,"q2","North Carolina","South","South Atlantic"
"594",-157.7863744,21.2770925,"4211 waialae ave, honolulu, hi 96816, usa","96816","Honolulu","HI",1014159,"q4","Hawaii","West","Pacific"
"595",-83.3988034,35.1641948,"295 westgate plaza, franklin, nc 28734, usa","28734","Franklin","NC",168813,"q3","North Carolina","South","South Atlantic"
"596",-80.4794929,36.3802419,"647 s key st, pilot mountain, nc 27041, usa","27041","Pilot Mountain","NC",163302,"q2","North Carolina","South","South Atlantic"
"597",-122.2995237,47.2022285,"1200 4th st nw, puyallup, wa 98371, usa","98371","Puyallup","WA",413260,"q4","Washington","West","Pacific"
"598",-115.1331482,36.2888565,"7090 n 5th st, north las vegas, nv 89084, usa","89084","North Las Vegas","NV",319088,"q4","Nevada","West","Mountain"
"599",-81.8762751,34.9756201,"dawn redwood dr, spartanburg, sc 29307, usa","29307","Spartanburg","SC",161590,"q2","South Carolina","South","South Atlantic"
"600",-117.2025948,32.8535386,"4023 governor dr, san diego, ca 92122, usa","92122","San Diego","CA",754642,"q4","California","West","Pacific"
"601",-95.5972816,29.6234703,"13503 southwest fwy, sugar land, tx 77478, usa","77478","Sugar Land","TX",316086,"q4","Texas","South","West South Central"
"602",-82.591806,40.7744376,"2154 w 4th st, ontario, oh 44906, usa","44906","Mansfield","OH",91551,"q1","Ohio","Midwest","East North Central"
"603",-81.8756182,41.4380285,"23100 lorain rd #1north, north olmsted, oh 44070, usa","44070","North Olmsted","OH",176402,"q3","Ohio","Midwest","East North Central"
"604",-92.1473265,38.5486041,"2101 schotthill woods dr, jefferson city, mo 65101, usa","65101","Jefferson City","MO",154473,"q2","Missouri","Midwest","West North Central"
"605",-83.1361684,40.6008424,"340 w fairground st, marion, oh 43302, usa","43302","Marion","OH",90873,"q1","Ohio","Midwest","East North Central"
"606",-122.2656327,38.0296657,"607 parker ave, rodeo, ca 94572, usa","94572","Rodeo","CA",478428,"q4","California","West","Pacific"
"607",-82.3295046,31.2023903,"2101 memorial dr, waycross, ga 31501, usa","31501","Waycross","GA",69572,"q1","Georgia","South","South Atlantic"
"608",-81.7235704,33.5213847,"1015 pine log rd, aiken, sc 29803, usa","29803","Aiken","SC",204414,"q3","South Carolina","South","South Atlantic"
"609",-70.4764784,43.4815487,"407 alfred st #111, biddeford, me 04005, usa","04005",NA,NA,NA,"q4",NA,NA,NA
"610",-84.8237169,42.5690946,"350 lansing st, charlotte, mi 48813, usa","48813","Charlotte","MI",144650,"q2","Michigan","Midwest","East North Central"
"611",-83.053635,39.988914,"1759 w 5th ave, columbus, oh 43212, usa","43212","Grandview Heights","OH",359554,"q4","Ohio","Midwest","East North Central"
"612",-85.6214036,44.7326697,"2279 w south airport rd, traverse city, mi 49684, usa","49684","Traverse City","MI",282564,"q4","Michigan","Midwest","East North Central"
"613",-78.205511,39.0790886,"366 fairfax pike, stephens city, va 22655, usa","22655","Stephens City","VA",260430,"q3","Virginia","South","South Atlantic"
"614",-92.5695077,34.5834317,"military rd, benton, ar, usa","ar",NA,NA,NA,"q4",NA,NA,NA
"615",-85.7979648,35.8568872,"new smithville hwy, tennessee 37166, usa","37166","Smithville","TN",134069,"q2","Tennessee","South","East South Central"
"616",-78.6950012,42.9589806,"4101 transit rd, buffalo, ny 14221, usa","14221","Town Of Amherst","NY",259226,"q3","New York","Northeast","Middle Atlantic"
"617",-82.1500514,29.2609256,"7131 n us hwy 441 #411ocala, ocala, fl 34475, usa","34475","Ocala","FL",107580,"q2","Florida","South","South Atlantic"
"618",-79.9904003,36.7486109,"624 blackberry rd, bassett, va 24055, usa","24055","Bassett","VA",86172,"q1","Virginia","South","South Atlantic"
"619",-80.7745928,41.101226,"6000 mahoning ave, austintown, oh 44515, usa","44515","Austintown","OH",106794,"q2","Ohio","Midwest","East North Central"
"620",-122.0613348,37.3750266,"855 e el camino real, mountain view, ca 94040, usa","94040","Mountain View","CA",2223094,"q4","California","West","Pacific"
"621",-81.3413141,42.9692342,"1570 oxford st w, london, on n6h 1w2, canada","canada",NA,NA,NA,"q4",NA,NA,NA
"622",-97.6154036,38.7921254,"2640 planet ave store 2640, salina, ks 67401, usa","67401","Salina","KS",127063,"q2","Kansas","Midwest","West North Central"
"623",-112.0152204,33.4817383,"3130 e thomas rd, phoenix, az 85016, usa","85016","Phoenix","AZ",349872,"q4","Arizona","West","Mountain"
"624",-88.1172594,41.9388588,"420 w army trail rd, bloomingdale, il 60108, usa","60108","Bloomingdale","IL",298619,"q4","Illinois","Midwest","East North Central"
"625",-95.2480822,29.9369113,"9625 n sam houston pkwy e, humble, tx 77396, usa","77396","Atascocita","TX",186553,"q3","Texas","South","West South Central"
"626",-84.1835281,39.7573924,"501 e 5th st, dayton, oh 45402, usa","45402","Dayton","OH",30834,"q1","Ohio","Midwest","East North Central"
"627",-84.2274031,36.0204109,"695 emory valley rd, oak ridge, tn 37830, usa","37830","Oak Ridge","TN",157132,"q2","Tennessee","South","East South Central"
"628",-84.5637886,34.0180253,"400 ernest w barrett pkwy nw #100, kennesaw, ga 30144, usa","30144","Kennesaw","GA",239732,"q3","Georgia","South","South Atlantic"
"629",-82.3203601,27.9207726,"11375 causeway blvd, brandon, fl 33511, usa","33511","Brandon","FL",233301,"q3","Florida","South","South Atlantic"
"630",-82.6772968,40.0043292,"78 oak meadow dr, pataskala, oh 43062, usa","43062","Pataskala","OH",241874,"q3","Ohio","Midwest","East North Central"
"631",-94.1611244,30.1214625,"4380 dowlen rd, beaumont, tx 77706, usa","77706","Beaumont","TX",180691,"q3","Texas","South","West South Central"
"632",-82.4440067,38.4128404,"729 9th ave, huntington, wv 25701, usa","25701","Huntington","WV",96079,"q1","West Virginia","South","South Atlantic"
"633",-90.9849782,38.5373546,"2030 phoenix center dr, washington, mo 63090, usa","63090","Washington","MO",190665,"q3","Missouri","Midwest","West North Central"
"634",-99.163185,30.059624,"1048 junction hwy, kerrville, tx 78028, usa","78028","Kerrville","TX",231011,"q3","Texas","South","West South Central"
"635",-80.1427057,25.8509089,"2050 71st st, miami beach, fl 33141, usa","33141","Miami Beach","FL",287131,"q4","Florida","South","South Atlantic"
"636",-86.2352219,35.3851521,"1905 n jackson st, tullahoma, tn 37388, usa","37388","Tullahoma","TN",143326,"q2","Tennessee","South","East South Central"
"637",-81.8680556,26.6455556,"2401 first st, fort myers, fl 33901, usa","33901","Fort Myers","FL",183751,"q3","Florida","South","South Atlantic"
"638",-83.7138113,32.7416015,"6200 skipper rd, macon, ga 31216, usa","31216","Macon","GA",149497,"q2","Georgia","South","South Atlantic"
"639",-79.8010984,40.540825,"1306 pittsburgh st, cheswick, pa 15024, usa","15024","Indiana Township","PA",163760,"q2","Pennsylvania","Northeast","Middle Atlantic"
"640",-120.6087248,35.1221858,"224 n oak park blvd, grover beach, ca 93433, usa","93433","Grover Beach","CA",530008,"q4","California","West","Pacific"
"641",-80.0815165,26.7544711,"1715 tiffany dr e, west palm beach, fl 33407, usa","33407","West Palm Beach","FL",202808,"q3","Florida","South","South Atlantic"
"642",-122.8609535,42.3143834,"1241 s riverside ave, medford, or 97501, usa","97501","Medford","OR",262655,"q3","Oregon","West","Pacific"
"643",-117.9059805,33.6214394,"798 dover dr, newport beach, ca 92663, usa","92663","Newport Beach","CA",1635502,"q4","California","West","Pacific"
"644",-97.4609137,35.6102389,"13801 n bryant ave, edmond, ok 73013, usa","73013","Edmond","OK",226220,"q3","Oklahoma","South","West South Central"
"645",-122.6230631,47.5339635,"1720 se mile hill dr, port orchard, wa 98366, usa","98366","Port Orchard","WA",342862,"q4","Washington","West","Pacific"
"646",-86.3669061,39.7159158,"3724 shady ln, plainfield, in 46168, usa","46168","Plainfield","IN",212353,"q3","Indiana","Midwest","East North Central"
"647",-97.1571741,33.230628,"2030 w university dr, denton, tx 76201, usa","76201","Denton","TX",202398,"q3","Texas","South","West South Central"
"648",-118.3098092,34.0442066,"1535 s western ave, los angeles, ca 90019, usa","90019","Los Angeles","CA",1092878,"q4","California","West","Pacific"
"649",-77.0955218,35.1037788,"560 mccarthy blvd store 560, new bern, nc 28562, usa","28562","New Bern","NC",192050,"q3","North Carolina","South","South Atlantic"
"650",-94.144498,36.3013151,"s dixieland rd, rogers, ar 72758, usa","72758","Rogers","AR",248181,"q3","Arkansas","South","West South Central"
"651",-81.4331777,26.4241171,"400 n 15th st, immokalee, fl 34142, usa","34142","Immokalee","FL",194422,"q3","Florida","South","South Atlantic"
"652",NA,NA,NA,NA,NA,NA,NA,"q4",NA,NA,NA
"653",-90.0424043,32.2846217,"5708 us-80, pearl, ms 39208, usa","39208","Pearl","MS",140065,"q2","Mississippi","South","East South Central"
"654",-118.394698,33.9714025,"7600 s sepulveda blvd, los angeles, ca 90045, usa","90045","Los Angeles","CA",1197634,"q4","California","West","Pacific"
"655",-87.9133688,30.6429539,"28691 us-98 suite a, daphne, al 36526, usa","36526","Daphne","AL",211448,"q3","Alabama","South","East South Central"
"656",-75.2202448,39.979834,"5050 parkside ave, philadelphia, pa 19131, usa","19131","Philadelphia","PA",134024,"q2","Pennsylvania","Northeast","Middle Atlantic"
"657",-81.6254041,30.1200997,"456 state rd 13, fruit cove, fl 32259, usa","32259","Fruit Cove","FL",349540,"q4","Florida","South","South Atlantic"
"658",-91.035,41.4473687,"427 lake park blvd, muscatine, ia 52761, usa","52761","Muscatine","IA",130567,"q2","Iowa","Midwest","West North Central"
"659",-70.3952169,43.6813423,"34 hutcherson dr, gorham, me 04038, usa","04038",NA,NA,NA,"q4",NA,NA,NA
"660",-85.1455128,41.1165312,"4122 lima rd, fort wayne, in 46805, usa","46805","Fort Wayne","IN",105385,"q1","Indiana","Midwest","East North Central"
"661",-89.8338183,35.2039774,"6899 stage rd, memphis, tn 38133, usa","38133","Bartlett","TN",178456,"q3","Tennessee","South","East South Central"
"662",-121.3180601,37.9912627,"943 w march ln, stockton, ca 95207, usa","95207","Stockton","CA",297625,"q4","California","West","Pacific"
"663",-111.7276965,33.6101268,"13757 n fountain hills blvd, fountain hills, az 85268, usa","85268","Fountain Hills","AZ",435250,"q4","Arizona","West","Mountain"
"664",-119.8062912,36.7757374,"fresno, ca 93704, usa","93704","Fresno","CA",252378,"q3","California","West","Pacific"
"665",-122.2960864,47.3930348,"pacific hwy s, kent, wa 98032, usa","98032","Kent","WA",381973,"q4","Washington","West","Pacific"
"666",-80.5501753,35.8694081,"1388 hwy 601 s, mocksville, nc 27028, usa","27028","Mocksville","NC",164222,"q3","North Carolina","South","South Atlantic"
"667",-80.2020728,26.1669569,"3282 n state rd 7, lauderdale lakes, fl 33319, usa","33319","Lauderhill","FL",136574,"q2","Florida","South","South Atlantic"
"668",-86.9455394,34.4485561,"709 us-31, hartselle, al 35640, usa","35640","Hartselle","AL",140740,"q2","Alabama","South","East South Central"
"669",-77.4992237,38.2937413,"2336 plank rd, fredericksburg, va 22401, usa","22401","Fredericksburg","VA",331623,"q4","Virginia","South","South Atlantic"
"670",-80.868632,35.5733718,"williamson rd, davidson, nc 28117, usa","28117","Mooresville","NC",394907,"q4","North Carolina","South","South Atlantic"
"671",-97.334675,37.604156,"5025 s broadway st, wichita, ks 67216, usa","67216","Wichita","KS",79678,"q1","Kansas","Midwest","West North Central"
"672",-122.1259456,37.4151801,"4085 el camino way, palo alto, ca 94306, usa","94306","Palo Alto","CA",2716541,"q4","California","West","Pacific"
"673",-77.3149872,41.9860791,"100 forestview ave, elkland, pa 16920, usa","16920","Elkland","PA",91480,"q1","Pennsylvania","Northeast","Middle Atlantic"
"674",-122.3408745,47.6325435,"8th ave n, seattle, wa 98109, usa","98109","Seattle","WA",743526,"q4","Washington","West","Pacific"
"675",-80.676374,32.920937,"112 robertson blvd, walterboro, sc 29488, usa","29488","Walterboro","SC",108574,"q2","South Carolina","South","South Atlantic"
"676",-84.1977802,39.81673,"5400 n dixie dr, dayton, oh 45414, usa","45414","Dayton","OH",103668,"q1","Ohio","Midwest","East North Central"
"677",-84.5204354,36.4966051,"18095 alberta st, oneida, tn 37841, usa","37841","Oneida","TN",104414,"q1","Tennessee","South","East South Central"
"678",-85.7606191,38.312137,"1319 applegate ln, clarksville, in 47129, usa","47129","Clarksville","IN",134215,"q2","Indiana","Midwest","East North Central"
"679",-122.165182,38.067263,"801 southampton rd, benicia, ca 94510, usa","94510","Benicia","CA",628738,"q4","California","West","Pacific"
"680",-86.6180372,36.1974238,"4101 lebanon pike, hermitage, tn 37076, usa","37076","Nashville","TN",255922,"q3","Tennessee","South","East South Central"
"681",NA,NA,NA,NA,NA,NA,NA,"q4",NA,NA,NA
"682",-97.2454709,37.5580948,"rainbow dr, derby, ks 67037, usa","67037","Derby","KS",190640,"q3","Kansas","Midwest","West North Central"
"683",-104.9878998,39.7159506,"21 s broadway, denver, co 80209, usa","80209","Denver","CO",783183,"q4","Colorado","West","Mountain"
"684",-81.9820082,35.053889,"boiling springs community park, 182 rainbow lake rd, boiling springs, sc 29316, usa","29316","Boiling Springs","SC",171406,"q3","South Carolina","South","South Atlantic"
"685",-93.212341,44.7262146,"7320 153rd st w, apple valley, mn 55124, usa","55124","Apple Valley","MN",302919,"q4","Minnesota","Midwest","West North Central"
"686",-84.9647639,32.3601128,"gaudette st, fort benning, ga 31905, usa","31905",NA,NA,NA,"q4",NA,NA,NA
"687",-73.3944466,42.0937726,"sheffield, ma 01257, usa","01257",NA,NA,NA,"q4",NA,NA,NA
"688",-84.1630696,36.7270736,"56 west highway 92, williamsburg, ky 40769, usa","40769","Williamsburg","KY",70061,"q1","Kentucky","South","East South Central"
"689",-77.6114568,37.4327108,"11749 hull street rd, midlothian, va 23112, usa","23112","Midlothian","VA",279212,"q4","Virginia","South","South Atlantic"
"690",-80.0505043,40.6030848,"10293 perry hwy, wexford, pa 15090, usa","15090","Wexford","PA",382022,"q4","Pennsylvania","Northeast","Middle Atlantic"
"691",-122.7872285,45.0091938,"601 n water st, silverton, or 97381, usa","97381","Silverton","OR",344416,"q4","Oregon","West","Pacific"
"692",-75.5612849,40.5868462,"4634 broadway, allentown, pa 18104, usa","18104","South Whitehall Township","PA",233931,"q3","Pennsylvania","Northeast","Middle Atlantic"
